{
  "type": "FeatureCollection",
  "features": [
    {
      "type": "Feature",
      "id": "node/369670355",
      "properties": {
        "esr:user": "567804",
        "name": "Երևան",
        "name:de": "Jerewan",
        "name:en": "Yerevan",
        "name:hy": "Երևան",
        "name:ru": "Ереван",
        "public_transport": "stop_position",
        "railway": "stop",
        "train": "yes",
        "uic_ref": "5800001",
        "wikidata": "Q4176210",
        "id": "node/369670355"
      },
      "geometry": {
        "type": "Point",
        "coordinates": [
          44.507897,
          40.1553328
        ]
      }
    },
    {
      "type": "Feature",
      "id": "node/618738557",
      "properties": {
        "name": "Սանահին",
        "name:en": "Sanahin",
        "name:hy": "Սանահին",
        "public_transport": "station",
        "railway": "station",
        "train": "yes",
        "id": "node/618738557"
      },
      "geometry": {
        "type": "Point",
        "coordinates": [
          44.6185203,
          41.0772878
        ]
      }
    },
    {
      "type": "Feature",
      "id": "node/618739635",
      "properties": {
        "esr:user": "564702",
        "name": "Այրում",
        "name:en": "Ayrum",
        "name:hy": "Այրում",
        "name:ru": "Айрум",
        "public_transport": "station",
        "railway": "station",
        "train": "yes",
        "uic_ref": "5800507",
        "wikidata": "Q4058980",
        "id": "node/618739635"
      },
      "geometry": {
        "type": "Point",
        "coordinates": [
          44.8937791,
          41.1897147
        ]
      }
    },
    {
      "type": "Feature",
      "id": "node/618760986",
      "properties": {
        "esr:user": "567306",
        "name": "Էջմիածին",
        "name:en": "Echmiatsin",
        "name:ko": "에체미하진",
        "name:ru": "Эчмиадзин",
        "public_transport": "station",
        "railway": "station",
        "train": "yes",
        "uic_ref": "5800711",
        "id": "node/618760986"
      },
      "geometry": {
        "type": "Point",
        "coordinates": [
          44.2660677,
          40.0690231
        ]
      }
    },
    {
      "type": "Feature",
      "id": "node/618761257",
      "properties": {
        "esr:user": "566708",
        "name": "Քարակերտ",
        "name:en": "Qarakert",
        "name:hy": "Քարակերտ",
        "name:ru": "Каракерт",
        "public_transport": "station",
        "railway": "station",
        "train": "yes",
        "uic_ref": "5800365",
        "id": "node/618761257"
      },
      "geometry": {
        "type": "Point",
        "coordinates": [
          43.8222832,
          40.2488047
        ]
      }
    },
    {
      "type": "Feature",
      "id": "node/618761511",
      "properties": {
        "esr:user": "566905",
        "name": "Արաքս",
        "name:en": "Araks",
        "name:ru": "Аракс",
        "public_transport": "station",
        "railway": "station",
        "train": "yes",
        "wikidata": "Q19689155",
        "id": "node/618761511"
      },
      "geometry": {
        "type": "Point",
        "coordinates": [
          43.9186797,
          40.1839981
        ]
      }
    },
    {
      "type": "Feature",
      "id": "node/618761612",
      "properties": {
        "esr:user": "566801",
        "name": "Դալարիկ",
        "name:en": "Dalarik",
        "name:ru": "Даларик",
        "public_transport": "station",
        "railway": "station",
        "train": "yes",
        "uic_ref": "5800492",
        "id": "node/618761612"
      },
      "geometry": {
        "type": "Point",
        "coordinates": [
          43.8769284,
          40.2304001
        ]
      }
    },
    {
      "type": "Feature",
      "id": "node/618763015",
      "properties": {
        "name": "Արտաշար",
        "name:en": "Artashar",
        "public_transport": "stop_position",
        "railway": "halt",
        "train": "yes",
        "id": "node/618763015"
      },
      "geometry": {
        "type": "Point",
        "coordinates": [
          44.1789136,
          40.1070687
        ]
      }
    },
    {
      "type": "Feature",
      "id": "node/618763488",
      "properties": {
        "name": "Բագրավան",
        "name:en": "Bagravan",
        "name:ru": "Баграван",
        "public_transport": "station",
        "railway": "halt",
        "train": "yes",
        "id": "node/618763488"
      },
      "geometry": {
        "type": "Point",
        "coordinates": [
          43.6661546,
          40.4792939
        ]
      }
    },
    {
      "type": "Feature",
      "id": "node/618763860",
      "properties": {
        "name": "Շիրակավան",
        "name:en": "Shirakavan",
        "name:hy": "Շիրակավան",
        "name:ru": "Ширакаван",
        "public_transport": "stop_position",
        "railway": "halt",
        "train": "yes",
        "id": "node/618763860"
      },
      "geometry": {
        "type": "Point",
        "coordinates": [
          43.7439062,
          40.6420881
        ]
      }
    },
    {
      "type": "Feature",
      "id": "node/618763898",
      "properties": {
        "esr:user": "567503",
        "name": "Բայանդուր",
        "name:en": "Bayandur",
        "name:hy": "Բայանդուր",
        "name:ru": "Баяндур",
        "public_transport": "station",
        "railway": "station",
        "train": "yes",
        "uic_ref": "5800708",
        "wikidata": "Q4080352",
        "id": "node/618763898"
      },
      "geometry": {
        "type": "Point",
        "coordinates": [
          43.7724599,
          40.6938127
        ]
      }
    },
    {
      "type": "Feature",
      "id": "node/618765608",
      "properties": {
        "name": "Սպիտակ",
        "name:en": "Spitak",
        "name:hy": "Սպիտակ",
        "name:ru": "Спитак",
        "public_transport": "station",
        "railway": "yard",
        "train": "yes",
        "id": "node/618765608"
      },
      "geometry": {
        "type": "Point",
        "coordinates": [
          44.2702147,
          40.8373541
        ]
      }
    },
    {
      "type": "Feature",
      "id": "node/1185035453",
      "properties": {
        "esr:user": "566500",
        "name": "Անի",
        "name:en": "Ani",
        "name:ru": "Ани",
        "public_transport": "station",
        "railway": "station",
        "train": "yes",
        "uic_ref": "5800703",
        "id": "node/1185035453"
      },
      "geometry": {
        "type": "Point",
        "coordinates": [
          43.6432768,
          40.4653279
        ]
      }
    },
    {
      "type": "Feature",
      "id": "node/1252614302",
      "properties": {
        "name": "Մասիս к-цо",
        "name:en": "Masis c-le",
        "name:ru": "Масис к-цо",
        "railway": "halt",
        "id": "node/1252614302"
      },
      "geometry": {
        "type": "Point",
        "coordinates": [
          44.4223419,
          40.063122
        ]
      }
    },
    {
      "type": "Feature",
      "id": "node/1308725713",
      "properties": {
        "esr:user": "566619",
        "name": "Արտենի",
        "name:en": "Arteni",
        "name:ru": "Артени",
        "public_transport": "station",
        "railway": "station",
        "train": "yes",
        "uic_ref": "5800713",
        "id": "node/1308725713"
      },
      "geometry": {
        "type": "Point",
        "coordinates": [
          43.7683849,
          40.3004079
        ]
      }
    },
    {
      "type": "Feature",
      "id": "node/1411538807",
      "properties": {
        "esr:user": "565809",
        "int_name": "Gyumri",
        "name": "Գյումրի",
        "name:de": "Gjumri",
        "name:en": "Gyumri",
        "name:fr": "Gyumri",
        "name:hy": "Գյումրու երկաթուղային հանգույց",
        "name:ka": "გიუმრი",
        "name:ku": "Gumrî",
        "name:lt": "Giumris",
        "name:ru": "Гюмри",
        "public_transport": "station",
        "railway": "station",
        "train": "yes",
        "uic_ref": "5800390",
        "wikidata": "Q4153265",
        "id": "node/1411538807"
      },
      "geometry": {
        "type": "Point",
        "coordinates": [
          43.860237,
          40.7876084
        ]
      }
    },
    {
      "type": "Feature",
      "id": "node/1431687901",
      "properties": {
        "esr:user": "567400",
        "name": "Մասիս",
        "name:en": "Masis",
        "name:ru": "Масис",
        "public_transport": "station",
        "railway": "station",
        "train": "yes",
        "uic_ref": "5800485",
        "wikidata": "Q4283803",
        "id": "node/1431687901"
      },
      "geometry": {
        "type": "Point",
        "coordinates": [
          44.4105494,
          40.0619799
        ]
      }
    },
    {
      "type": "Feature",
      "id": "node/1863562938",
      "properties": {
        "esr:user": "568900",
        "name": "Սևան",
        "name:en": "Sevan",
        "name:hy": "Սևան",
        "name:ru": "Севан",
        "railway": "station",
        "uic_ref": "5800486",
        "wikidata": "Q4411874",
        "id": "node/1863562938"
      },
      "geometry": {
        "type": "Point",
        "coordinates": [
          44.9567577,
          40.5512667
        ]
      }
    },
    {
      "type": "Feature",
      "id": "node/1863641135",
      "properties": {
        "esr:user": "568924",
        "name": "Ախթամար",
        "name:en": "Akhtamar",
        "name:hy": "Ախթամար",
        "name:ru": "Ахтамар",
        "railway": "halt",
        "id": "node/1863641135"
      },
      "geometry": {
        "type": "Point",
        "coordinates": [
          44.9623823,
          40.5982452
        ]
      }
    },
    {
      "type": "Feature",
      "id": "node/1888169420",
      "properties": {
        "railway": "station",
        "id": "node/1888169420"
      },
      "geometry": {
        "type": "Point",
        "coordinates": [
          44.5003987,
          40.18673
        ]
      }
    },
    {
      "type": "Feature",
      "id": "node/1946135127",
      "properties": {
        "esr:user": "566604",
        "name": "Արագած",
        "name:en": "Aragats",
        "name:ru": "Арагац",
        "public_transport": "station",
        "railway": "station",
        "train": "yes",
        "uic_ref": "5800704",
        "id": "node/1946135127"
      },
      "geometry": {
        "type": "Point",
        "coordinates": [
          43.6647941,
          40.3254161
        ]
      }
    },
    {
      "type": "Feature",
      "id": "node/1953137310",
      "properties": {
        "esr:user": "569509",
        "name": "Արարատ կառամատույց",
        "name:en": "sp Ararat",
        "name:ru": "оп Арарат",
        "railway": "halt",
        "id": "node/1953137310"
      },
      "geometry": {
        "type": "Point",
        "coordinates": [
          44.6898063,
          39.8532772
        ]
      }
    },
    {
      "type": "Feature",
      "id": "node/1953228388",
      "properties": {
        "esr:user": "569602",
        "name": "Երասխ",
        "name:en": "Yeraskh",
        "name:hy": "Երասխ",
        "name:ru": "Ерасх",
        "railway": "station",
        "uic_ref": "5800484",
        "id": "node/1953228388"
      },
      "geometry": {
        "type": "Point",
        "coordinates": [
          44.8256993,
          39.7403992
        ]
      }
    },
    {
      "type": "Feature",
      "id": "node/1953228631",
      "properties": {
        "esr:user": "569528",
        "name": "Արմաշ",
        "name:en": "Armash",
        "name:ru": "Армаш",
        "railway": "halt",
        "id": "node/1953228631"
      },
      "geometry": {
        "type": "Point",
        "coordinates": [
          44.8065241,
          39.7606935
        ]
      }
    },
    {
      "type": "Feature",
      "id": "node/1953228646",
      "properties": {
        "esr:user": "569513",
        "name": "Սուրենավան",
        "name:en": "Surenavan",
        "name:ru": "Суренаван",
        "railway": "halt",
        "uic_ref": "5800735",
        "id": "node/1953228646"
      },
      "geometry": {
        "type": "Point",
        "coordinates": [
          44.7681483,
          39.7949001
        ]
      }
    },
    {
      "type": "Feature",
      "id": "node/1979006072",
      "properties": {
        "name": "Ալմաստ",
        "name:en": "Almast",
        "name:hy": "Ալմաստ",
        "name:ru": "Алмаст",
        "railway": "halt",
        "id": "node/1979006072"
      },
      "geometry": {
        "type": "Point",
        "coordinates": [
          44.5504948,
          40.205149
        ]
      }
    },
    {
      "type": "Feature",
      "id": "node/1983925858",
      "properties": {
        "esr:user": "568807",
        "name": "Ծաղկունք",
        "name:en": "Tsakhkunq",
        "name:hy": "Ծաղկունք",
        "name:ru": "Цахкунк",
        "public_transport": "station",
        "railway": "halt",
        "id": "node/1983925858"
      },
      "geometry": {
        "type": "Point",
        "coordinates": [
          44.8712914,
          40.5420746
        ]
      }
    },
    {
      "type": "Feature",
      "id": "node/1983925955",
      "properties": {
        "esr:user": "568949",
        "name": "Շողեր",
        "name:en": "Shogher",
        "name:hy": "Շողեր",
        "name:ru": "Шогер",
        "railway": "halt",
        "id": "node/1983925955"
      },
      "geometry": {
        "type": "Point",
        "coordinates": [
          45.0167295,
          40.6226654
        ]
      }
    },
    {
      "type": "Feature",
      "id": "node/2272363264",
      "properties": {
        "esr:user": "569405",
        "name": "Այգևան",
        "name:en": "Aygevan",
        "name:hy": "Այգևան",
        "name:ru": "Айгеван",
        "public_transport": "station",
        "railway": "station",
        "uic_ref": "5800712",
        "id": "node/2272363264"
      },
      "geometry": {
        "type": "Point",
        "coordinates": [
          44.6544796,
          39.8864332
        ]
      }
    },
    {
      "type": "Feature",
      "id": "node/2459508942",
      "properties": {
        "name": "Հայկաշեն",
        "name:en": "Haykashen",
        "name:ru": "Айкашен",
        "public_transport": "stop_position",
        "railway": "halt",
        "train": "yes",
        "id": "node/2459508942"
      },
      "geometry": {
        "type": "Point",
        "coordinates": [
          44.3089027,
          40.0681506
        ]
      }
    },
    {
      "type": "Feature",
      "id": "node/2984585405",
      "properties": {
        "name": "Սոլակ կառ.",
        "name:en": "sp Solak",
        "railway": "halt",
        "id": "node/2984585405"
      },
      "geometry": {
        "type": "Point",
        "coordinates": [
          44.7076942,
          40.4608505
        ]
      }
    },
    {
      "type": "Feature",
      "id": "node/3063659693",
      "properties": {
        "name": "Ախթալա",
        "name:en": "Akhtala",
        "name:hy": "Ախթալա",
        "name:ru": "Ахтала",
        "public_transport": "stop_position",
        "railway": "stop",
        "train": "yes",
        "id": "node/3063659693"
      },
      "geometry": {
        "type": "Point",
        "coordinates": [
          44.7843473,
          41.1488775
        ]
      }
    },
    {
      "type": "Feature",
      "id": "node/3063661708",
      "properties": {
        "name": "Հաղպատ",
        "name:en": "Haghpat",
        "name:hy": "Հաղպատ",
        "name:ru": "Ахпат",
        "public_transport": "stop_position",
        "railway": "stop",
        "train": "yes",
        "id": "node/3063661708"
      },
      "geometry": {
        "type": "Point",
        "coordinates": [
          44.7112427,
          41.1100806
        ]
      }
    },
    {
      "type": "Feature",
      "id": "node/3063665304",
      "properties": {
        "name": "Թումանյան",
        "name:en": "Tumanyan",
        "name:hy": "Թումանյան",
        "name:ru": "Туманян",
        "public_transport": "station",
        "railway": "yard",
        "train": "yes",
        "id": "node/3063665304"
      },
      "geometry": {
        "type": "Point",
        "coordinates": [
          44.6362678,
          41.0093634
        ]
      }
    },
    {
      "type": "Feature",
      "id": "node/3063665392",
      "properties": {
        "name": "Մայիսյան",
        "name:en": "Mayisyan",
        "name:hy": "Մայիսյան",
        "name:ru": "Маисян",
        "public_transport": "stop_position",
        "railway": "stop",
        "train": "yes",
        "id": "node/3063665392"
      },
      "geometry": {
        "type": "Point",
        "coordinates": [
          43.8470493,
          40.8485133
        ]
      }
    },
    {
      "type": "Feature",
      "id": "node/3063665859",
      "properties": {
        "name": "Փամբակ",
        "name:en": "Pambak",
        "name:hy": "Փամբակ",
        "name:ru": "Памбак",
        "public_transport": "station",
        "railway": "station",
        "train": "yes",
        "id": "node/3063665859"
      },
      "geometry": {
        "type": "Point",
        "coordinates": [
          44.5588155,
          40.8292662
        ]
      }
    },
    {
      "type": "Feature",
      "id": "node/3063670370",
      "properties": {
        "name": "Նալբանդ",
        "name:en": "Nalband",
        "name:hy": "Նալբանդ",
        "name:ru": "Налбанд",
        "public_transport": "stop_position",
        "railway": "stop",
        "train": "yes",
        "id": "node/3063670370"
      },
      "geometry": {
        "type": "Point",
        "coordinates": [
          44.1622261,
          40.8512908
        ]
      }
    },
    {
      "type": "Feature",
      "id": "node/3063671485",
      "properties": {
        "name": "Ջաջուռ",
        "name:en": "Jajur",
        "name:hy": "Ջաջուռ",
        "name:ru": "Джаджур",
        "public_transport": "stop_position",
        "railway": "stop",
        "train": "yes",
        "id": "node/3063671485"
      },
      "geometry": {
        "type": "Point",
        "coordinates": [
          43.9508926,
          40.8729466
        ]
      }
    },
    {
      "type": "Feature",
      "id": "node/3063671525",
      "properties": {
        "name": "Ղալթախչի",
        "name:en": "Kaltakhchi",
        "name:hy": "Ղալթախչի",
        "name:ru": "Калтахчи",
        "public_transport": "stop_position",
        "railway": "stop",
        "train": "yes",
        "id": "node/3063671525"
      },
      "geometry": {
        "type": "Point",
        "coordinates": [
          44.0544226,
          40.8625115
        ]
      }
    },
    {
      "type": "Feature",
      "id": "node/3063675927",
      "properties": {
        "name": "Արմավիր",
        "name:en": "Armavir",
        "public_transport": "station",
        "railway": "station",
        "train": "yes",
        "wikidata": "Q4069525",
        "id": "node/3063675927"
      },
      "geometry": {
        "type": "Point",
        "coordinates": [
          44.031846,
          40.1459096
        ]
      }
    },
    {
      "type": "Feature",
      "id": "node/3063682394",
      "properties": {
        "name": "Սովետական",
        "name:en": "Sovetakan",
        "public_transport": "station",
        "railway": "station",
        "train": "yes",
        "id": "node/3063682394"
      },
      "geometry": {
        "type": "Point",
        "coordinates": [
          44.1526425,
          40.1153195
        ]
      }
    },
    {
      "type": "Feature",
      "id": "node/3063684245",
      "properties": {
        "name": "Նորագավիթ",
        "name:en": "Noragavit",
        "public_transport": "station",
        "railway": "station",
        "train": "yes",
        "id": "node/3063684245"
      },
      "geometry": {
        "type": "Point",
        "coordinates": [
          44.4640192,
          40.1133732
        ]
      }
    },
    {
      "type": "Feature",
      "id": "node/3064566183",
      "properties": {
        "name": "Սիս",
        "name:en": "Sis",
        "public_transport": "stop_position",
        "railway": "halt",
        "train": "yes",
        "id": "node/3064566183"
      },
      "geometry": {
        "type": "Point",
        "coordinates": [
          44.3888712,
          40.0632983
        ]
      }
    },
    {
      "type": "Feature",
      "id": "node/3064601788",
      "properties": {
        "name": "Ջրափի",
        "name:en": "Jrapi",
        "public_transport": "stop_position",
        "railway": "halt",
        "train": "yes",
        "id": "node/3064601788"
      },
      "geometry": {
        "type": "Point",
        "coordinates": [
          43.6755972,
          40.5576527
        ]
      }
    },
    {
      "type": "Feature",
      "id": "node/3064603324",
      "properties": {
        "esr:user": "566407",
        "int_name": "Aghin",
        "name": "Աղին",
        "name:en": "Aghin",
        "name:hy": "Աղին",
        "name:ru": "Ахин",
        "public_transport": "station",
        "railway": "station",
        "train": "yes",
        "uic_ref": "5800702",
        "wikidata": "Q4056928",
        "id": "node/3064603324"
      },
      "geometry": {
        "type": "Point",
        "coordinates": [
          43.7141528,
          40.6075503
        ]
      }
    },
    {
      "type": "Feature",
      "id": "node/3065317613",
      "properties": {
        "name": "Մխչյան",
        "name:en": "Mkhchyan",
        "railway": "halt",
        "id": "node/3065317613"
      },
      "geometry": {
        "type": "Point",
        "coordinates": [
          44.4775299,
          40.0192337
        ]
      }
    },
    {
      "type": "Feature",
      "id": "node/3065321140",
      "properties": {
        "name": "Դալար",
        "name:en": "Dallar",
        "railway": "halt",
        "id": "node/3065321140"
      },
      "geometry": {
        "type": "Point",
        "coordinates": [
          44.5309384,
          39.9841019
        ]
      }
    },
    {
      "type": "Feature",
      "id": "node/3065331711",
      "properties": {
        "name": "Նոր Կյանք",
        "name:en": "Nor Kyank",
        "railway": "halt",
        "id": "node/3065331711"
      },
      "geometry": {
        "type": "Point",
        "coordinates": [
          44.6450717,
          39.8970478
        ]
      }
    },
    {
      "type": "Feature",
      "id": "node/3065335861",
      "properties": {
        "name": "Յուվա",
        "name:en": "Yuva",
        "railway": "halt",
        "id": "node/3065335861"
      },
      "geometry": {
        "type": "Point",
        "coordinates": [
          44.5786049,
          39.9496681
        ]
      }
    },
    {
      "type": "Feature",
      "id": "node/3065335862",
      "properties": {
        "name": "Շամպայն",
        "name:en": "Shampayn",
        "railway": "halt",
        "id": "node/3065335862"
      },
      "geometry": {
        "type": "Point",
        "coordinates": [
          44.6167341,
          39.9258801
        ]
      }
    },
    {
      "type": "Feature",
      "id": "node/3065359644",
      "properties": {
        "name": "Ավշար",
        "name:en": "Avshar",
        "railway": "halt",
        "id": "node/3065359644"
      },
      "geometry": {
        "type": "Point",
        "coordinates": [
          44.6843285,
          39.857676
        ]
      }
    },
    {
      "type": "Feature",
      "id": "node/3065361683",
      "properties": {
        "esr:user": "569509",
        "name": "Արարատ",
        "name:en": "Ararat",
        "name:ru": "Арарат",
        "public_transport": "station",
        "railway": "station",
        "uic_ref": "5800706",
        "wikidata": "Q4068574",
        "id": "node/3065361683"
      },
      "geometry": {
        "type": "Point",
        "coordinates": [
          44.7057204,
          39.8407446
        ]
      }
    },
    {
      "type": "Feature",
      "id": "node/3065364803",
      "properties": {
        "name": "Զոդ",
        "name:en": "Zod",
        "railway": "halt",
        "id": "node/3065364803"
      },
      "geometry": {
        "type": "Point",
        "coordinates": [
          44.7205709,
          39.8285492
        ]
      }
    },
    {
      "type": "Feature",
      "id": "node/3065383136",
      "properties": {
        "esr:user": "568008",
        "name": "Քանաքեռ",
        "name:en": "Kanaker",
        "name:ru": "Канакер",
        "railway": "station",
        "id": "node/3065383136"
      },
      "geometry": {
        "type": "Point",
        "coordinates": [
          44.55302,
          40.2296449
        ]
      }
    },
    {
      "type": "Feature",
      "id": "node/3065383592",
      "properties": {
        "esr:user": "568101",
        "name": "Աբովյան",
        "name:en": "Abovyan",
        "name:ru": "Абовян",
        "railway": "station",
        "uic_ref": "5800488",
        "id": "node/3065383592"
      },
      "geometry": {
        "type": "Point",
        "coordinates": [
          44.6171316,
          40.269753
        ]
      }
    },
    {
      "type": "Feature",
      "id": "node/3065385659",
      "properties": {
        "name": "Նուռնուս",
        "name:en": "Nurnus",
        "railway": "station",
        "id": "node/3065385659"
      },
      "geometry": {
        "type": "Point",
        "coordinates": [
          44.6063319,
          40.3429127
        ]
      }
    },
    {
      "type": "Feature",
      "id": "node/3065392368",
      "properties": {
        "name": "Չարենցավան",
        "name:en": "Charentsavan",
        "railway": "station",
        "id": "node/3065392368"
      },
      "geometry": {
        "type": "Point",
        "coordinates": [
          44.647543,
          40.4025406
        ]
      }
    },
    {
      "type": "Feature",
      "id": "node/3065396890",
      "properties": {
        "name": "Քախսի",
        "name:en": "Kakhsi",
        "railway": "halt",
        "id": "node/3065396890"
      },
      "geometry": {
        "type": "Point",
        "coordinates": [
          44.7376057,
          40.4801635
        ]
      }
    },
    {
      "type": "Feature",
      "id": "node/3065397984",
      "properties": {
        "name": "Սոլակ",
        "name:en": "Solak",
        "public_transport": "station",
        "railway": "halt",
        "id": "node/3065397984"
      },
      "geometry": {
        "type": "Point",
        "coordinates": [
          44.6937145,
          40.4520139
        ]
      }
    },
    {
      "type": "Feature",
      "id": "node/3065403855",
      "properties": {
        "name": "Հրազդան",
        "name:en": "Hrazdan",
        "name:ru": "Русский",
        "public_transport": "station",
        "railway": "station",
        "wikidata": "Q4388364",
        "id": "node/3065403855"
      },
      "geometry": {
        "type": "Point",
        "coordinates": [
          44.7573712,
          40.5158513
        ]
      }
    },
    {
      "type": "Feature",
      "id": "node/3065414119",
      "properties": {
        "name": "Դդմաշեն",
        "name:en": "Ddmashen",
        "name:ru": "Ддмашен",
        "railway": "halt",
        "id": "node/3065414119"
      },
      "geometry": {
        "type": "Point",
        "coordinates": [
          44.8251114,
          40.5654956
        ]
      }
    },
    {
      "type": "Feature",
      "id": "node/3065419936",
      "properties": {
        "esr:user": "568811",
        "name": "Վարսեր",
        "name:en": "Varser",
        "name:ru": "Варсер",
        "railway": "halt",
        "id": "node/3065419936"
      },
      "geometry": {
        "type": "Point",
        "coordinates": [
          44.9139581,
          40.5512268
        ]
      }
    },
    {
      "type": "Feature",
      "id": "node/3065424534",
      "properties": {
        "esr:user": "568934",
        "name": "Ծովագյուղ",
        "name:en": "Tsovagyugh",
        "name:hy": "Ծովագյուղ",
        "name:ru": "Цовагюх",
        "railway": "station",
        "wikidata": "Q4506035",
        "id": "node/3065424534"
      },
      "geometry": {
        "type": "Point",
        "coordinates": [
          44.9710159,
          40.6268982
        ]
      }
    },
    {
      "type": "Feature",
      "id": "node/3065430471",
      "properties": {
        "esr:user": "568915",
        "name": "Կղզի",
        "name:de": "Insel",
        "name:en": "Island",
        "name:ru": "Остров",
        "railway": "halt",
        "id": "node/3065430471"
      },
      "geometry": {
        "type": "Point",
        "coordinates": [
          44.9987038,
          40.5679396
        ]
      }
    },
    {
      "type": "Feature",
      "id": "node/3065456284",
      "properties": {
        "esr:user": "568205",
        "name": "Արևիկ",
        "name:en": "Arevik",
        "name:ru": "Аревик",
        "railway": "halt",
        "id": "node/3065456284"
      },
      "geometry": {
        "type": "Point",
        "coordinates": [
          45.0436042,
          40.6135479
        ]
      }
    },
    {
      "type": "Feature",
      "id": "node/3065465845",
      "properties": {
        "name": "Դրախտիկ",
        "name:en": "Drakhtik",
        "name:hy": "Դրախտիկ",
        "name:ru": "Драхтик",
        "railway": "halt",
        "id": "node/3065465845"
      },
      "geometry": {
        "type": "Point",
        "coordinates": [
          45.2109464,
          40.5467494
        ]
      }
    },
    {
      "type": "Feature",
      "id": "node/3065474333",
      "properties": {
        "esr:user": "568968",
        "name": "Ծիծեռնակ",
        "name:en": "Tsitsernak",
        "name:hy": "Ծիծեռնակ",
        "name:ru": "Цицернак",
        "railway": "halt",
        "id": "node/3065474333"
      },
      "geometry": {
        "type": "Point",
        "coordinates": [
          45.0877741,
          40.5992196
        ]
      }
    },
    {
      "type": "Feature",
      "id": "node/3065487741",
      "properties": {
        "esr:user": "569000",
        "name": "Շորժա",
        "name:de": "Schorscha",
        "name:en": "Shorzha",
        "name:ru": "Шоржа",
        "railway": "station",
        "wikidata": "Q4526164",
        "id": "node/3065487741"
      },
      "geometry": {
        "type": "Point",
        "coordinates": [
          45.267978,
          40.4996614
        ]
      }
    },
    {
      "type": "Feature",
      "id": "node/3065511544",
      "properties": {
        "name": "51 կմ",
        "name:en": "51 km",
        "railway": "halt",
        "id": "node/3065511544"
      },
      "geometry": {
        "type": "Point",
        "coordinates": [
          44.611362,
          40.3105116
        ]
      }
    },
    {
      "type": "Feature",
      "id": "node/3843054474",
      "properties": {
        "esr:user": "565300",
        "name": "Վանաձոր",
        "name:en": "Vanadzor",
        "name:hy": "Վանաձոր",
        "name:ru": "Ванадзор",
        "public_transport": "station",
        "railway": "station",
        "train": "yes",
        "uic_ref": "5800620",
        "wikidata": "Q4103274",
        "id": "node/3843054474"
      },
      "geometry": {
        "type": "Point",
        "coordinates": [
          44.486482,
          40.8159468
        ]
      }
    },
    {
      "type": "Feature",
      "id": "node/3895093679",
      "properties": {
        "name": "Գետափ",
        "name:en": "Getap",
        "public_transport": "station",
        "railway": "yard",
        "train": "yes",
        "id": "node/3895093679"
      },
      "geometry": {
        "type": "Point",
        "coordinates": [
          43.6276898,
          40.3955434
        ]
      }
    },
    {
      "type": "Feature",
      "id": "node/3895093710",
      "properties": {
        "name": "Կաքավաձոր",
        "name:en": "Kakavadzor",
        "public_transport": "station",
        "railway": "yard",
        "train": "yes",
        "id": "node/3895093710"
      },
      "geometry": {
        "type": "Point",
        "coordinates": [
          44.7517729,
          40.5730197
        ]
      }
    },
    {
      "type": "Feature",
      "id": "node/3895120717",
      "properties": {
        "name": "Մարալիկ",
        "name:en": "Maralik",
        "name:hy": "Մարալիկ",
        "public_transport": "station",
        "railway": "yard",
        "train": "yes",
        "id": "node/3895120717"
      },
      "geometry": {
        "type": "Point",
        "coordinates": [
          43.8767983,
          40.5793702
        ]
      }
    },
    {
      "type": "Feature",
      "id": "node/4832362849",
      "properties": {
        "name": "Այգևան կառամատույց",
        "name:en": "sp Aygevan",
        "name:hy": "Այգևան կառամատույց",
        "name:ru": "оп Айгеван",
        "railway": "halt",
        "id": "node/4832362849"
      },
      "geometry": {
        "type": "Point",
        "coordinates": [
          44.6654517,
          39.872237
        ]
      }
    },
    {
      "type": "Feature",
      "id": "node/4832820530",
      "properties": {
        "name": "Մրգաշատ",
        "name:en": "Mrgashat",
        "name:ru": "Мргашат",
        "public_transport": "stop_position",
        "railway": "halt",
        "train": "yes",
        "id": "node/4832820530"
      },
      "geometry": {
        "type": "Point",
        "coordinates": [
          44.082725,
          40.1319885
        ]
      }
    },
    {
      "type": "Feature",
      "id": "node/5103246923",
      "properties": {
        "name": "Արջուտ",
        "name:en": "Archut",
        "name:hy": "Արջուտ",
        "name:ru": "Арчут",
        "public_transport": "station",
        "railway": "yard",
        "train": "yes",
        "wikidata": "Q4070980",
        "id": "node/5103246923"
      },
      "geometry": {
        "type": "Point",
        "coordinates": [
          44.3870777,
          40.8471693
        ]
      }
    },
    {
      "type": "Feature",
      "id": "node/5103261176",
      "properties": {
        "name": "Ալավերդի",
        "name:en": "Alaverdi",
        "name:hy": "Ալավերդի",
        "name:ru": "Алаверди",
        "public_transport": "stop_position",
        "railway": "stop",
        "train": "yes",
        "wikidata": "Q4060408",
        "id": "node/5103261176"
      },
      "geometry": {
        "type": "Point",
        "coordinates": [
          44.670076,
          41.098435
        ]
      }
    },
    {
      "type": "Feature",
      "id": "node/5215879025",
      "properties": {
        "name": "Երևան",
        "name:de": "Jerewan",
        "name:en": "Yerevan",
        "name:hy": "Երևան",
        "name:ru": "Ереван",
        "public_transport": "stop_position",
        "railway": "stop",
        "train": "yes",
        "id": "node/5215879025"
      },
      "geometry": {
        "type": "Point",
        "coordinates": [
          44.5079103,
          40.1544705
        ]
      }
    },
    {
      "type": "Feature",
      "id": "node/5377634303",
      "properties": {
        "layer": "-2",
        "name": "Հանրապետության Հրապարակ",
        "name:de": "Platz der Republik",
        "name:en": "Republic Square",
        "name:ru": "Площадь Республики",
        "old_name:ru": "Площадь Ленина",
        "operator": "Ереванский метрополитен им. Карена Демирчяна",
        "public_transport": "station",
        "railway": "station",
        "station": "subway",
        "subway": "yes",
        "train": "yes",
        "wikidata": "Q3390443",
        "wikipedia": "ru:Площадь Республики (станция метро)",
        "id": "node/5377634303"
      },
      "geometry": {
        "type": "Point",
        "coordinates": [
          44.51586,
          40.1781892
        ]
      }
    },
    {
      "type": "Feature",
      "id": "node/5377634307",
      "properties": {
        "name": "Բարեկամություն",
        "name:de": "Barekamutjun",
        "name:en": "Barekamutyun",
        "name:ru": "Дружба",
        "operator": "Ереванский метрополитен им. Карена Демирчяна",
        "public_transport": "station",
        "railway": "station",
        "station": "subway",
        "train": "yes",
        "transport": "subway",
        "wikidata": "Q2061891",
        "id": "node/5377634307"
      },
      "geometry": {
        "type": "Point",
        "coordinates": [
          44.4934281,
          40.1977308
        ]
      }
    },
    {
      "type": "Feature",
      "id": "node/7452091654",
      "properties": {
        "int_name": "Isahakyan",
        "name": "Իսահակյան",
        "name:en": "Isahakyan",
        "name:hy": "Իսահակյան",
        "name:ru": "Исаакян",
        "public_transport": "station",
        "railway": "halt",
        "train": "yes",
        "id": "node/7452091654"
      },
      "geometry": {
        "type": "Point",
        "coordinates": [
          43.7258902,
          40.6193449
        ]
      }
    },
    {
      "type": "Feature",
      "id": "node/7452203384",
      "properties": {
        "esr:user": "568972",
        "name:ru": "Зепюр",
        "railway": "station",
        "id": "node/7452203384"
      },
      "geometry": {
        "type": "Point",
        "coordinates": [
          45.152737,
          40.5685449
        ]
      }
    },
    {
      "type": "Feature",
      "id": "node/7553411738",
      "properties": {
        "int_name": "Վահագնաձոր",
        "int_name:en": "Vahagnadzor",
        "name": "Շահալի",
        "name:en": "Shahali",
        "public_transport": "station",
        "railway": "station",
        "train": "yes",
        "id": "node/7553411738"
      },
      "geometry": {
        "type": "Point",
        "coordinates": [
          44.5938925,
          40.8863173
        ]
      }
    },
    {
      "type": "Feature",
      "id": "node/7564242877",
      "properties": {
        "esr:user": "567804",
        "name": "Երևան",
        "name:de": "Jerewan",
        "name:en": "Yerevan",
        "name:hy": "Երևան",
        "name:ru": "Ереван",
        "public_transport": "station",
        "railway": "station",
        "train": "yes",
        "uic_ref": "5800001",
        "wikidata": "Q4176210",
        "id": "node/7564242877"
      },
      "geometry": {
        "type": "Point",
        "coordinates": [
          44.5082278,
          40.1553081
        ]
      }
    },
    {
      "type": "Feature",
      "id": "node/7985843368",
      "properties": {
        "name": "Արտաշատ",
        "name:en": "Artashat",
        "public_transport": "station",
        "railway": "station",
        "id": "node/7985843368"
      },
      "geometry": {
        "type": "Point",
        "coordinates": [
          44.5545264,
          39.9615101
        ]
      }
    },
    {
      "type": "Feature",
      "id": "node/8326922717",
      "properties": {
        "name": "Բյուրավան",
        "name:en": "Byuravan",
        "railway": "halt",
        "train": "yes",
        "id": "node/8326922717"
      },
      "geometry": {
        "type": "Point",
        "coordinates": [
          44.5096534,
          40.00197
        ]
      }
    }
  ]
}