{
  "type": "FeatureCollection",
  "features": [
    {
      "type": "Feature",
      "id": "node/258740065",
      "properties": {
        "name": "Estación Central de Ferrocarril",
        "public_transport": "stop_position",
        "railway": "stop",
        "train": "yes",
        "id": "node/258740065"
      },
      "geometry": {
        "type": "Point",
        "coordinates": [
          -82.3549134,
          23.1298696
        ]
      }
    },
    {
      "type": "Feature",
      "id": "node/258740078",
      "properties": {
        "name": "Terminal La Coubre",
        "public_transport": "stop_position",
        "railway": "station",
        "train": "yes",
        "id": "node/258740078"
      },
      "geometry": {
        "type": "Point",
        "coordinates": [
          -82.3536456,
          23.1272786
        ]
      }
    },
    {
      "type": "Feature",
      "id": "node/260001963",
      "properties": {
        "name": "Nazareno",
        "public_transport": "stop_position",
        "railway": "halt",
        "train": "yes",
        "id": "node/260001963"
      },
      "geometry": {
        "type": "Point",
        "coordinates": [
          -78.3747423,
          21.6432595
        ]
      }
    },
    {
      "type": "Feature",
      "id": "node/450847351",
      "properties": {
        "name": "Ganuza",
        "public_transport": "stop_position",
        "railway": "halt",
        "shelter": "yes",
        "train": "yes",
        "id": "node/450847351"
      },
      "geometry": {
        "type": "Point",
        "coordinates": [
          -82.114161,
          22.9239702
        ]
      }
    },
    {
      "type": "Feature",
      "id": "node/454580097",
      "properties": {
        "name": "Cuadra",
        "public_transport": "stop_position",
        "railway": "halt",
        "train": "yes",
        "id": "node/454580097"
      },
      "geometry": {
        "type": "Point",
        "coordinates": [
          -82.2766741,
          23.1383894
        ]
      }
    },
    {
      "type": "Feature",
      "id": "node/454840108",
      "properties": {
        "name": "Naval",
        "public_transport": "stop_position",
        "railway": "halt",
        "train": "yes",
        "id": "node/454840108"
      },
      "geometry": {
        "type": "Point",
        "coordinates": [
          -82.3318417,
          23.1458777
        ]
      }
    },
    {
      "type": "Feature",
      "id": "node/454843865",
      "properties": {
        "name": "Elisa",
        "public_transport": "stop_position",
        "railway": "halt",
        "train": "yes",
        "id": "node/454843865"
      },
      "geometry": {
        "type": "Point",
        "coordinates": [
          -82.2593901,
          23.141881
        ]
      }
    },
    {
      "type": "Feature",
      "id": "node/454843980",
      "properties": {
        "name": "Rio Blanco",
        "public_transport": "stop_position",
        "railway": "halt",
        "train": "yes",
        "id": "node/454843980"
      },
      "geometry": {
        "type": "Point",
        "coordinates": [
          -81.9680968,
          23.1281279
        ]
      }
    },
    {
      "type": "Feature",
      "id": "node/460340843",
      "properties": {
        "name": "Candelaria",
        "public_transport": "stop_position",
        "railway": "station",
        "train": "yes",
        "id": "node/460340843"
      },
      "geometry": {
        "type": "Point",
        "coordinates": [
          -82.9574988,
          22.7383155
        ]
      }
    },
    {
      "type": "Feature",
      "id": "node/460343843",
      "properties": {
        "name": "Mango Jobo",
        "public_transport": "stop_position",
        "railway": "halt",
        "train": "yes",
        "id": "node/460343843"
      },
      "geometry": {
        "type": "Point",
        "coordinates": [
          -83.0816223,
          22.6926827
        ]
      }
    },
    {
      "type": "Feature",
      "id": "node/460356145",
      "properties": {
        "bench": "yes",
        "name": "Lopez Peña",
        "public_transport": "stop_position",
        "railway": "halt",
        "shelter": "yes",
        "train": "yes",
        "id": "node/460356145"
      },
      "geometry": {
        "type": "Point",
        "coordinates": [
          -83.1701562,
          22.6351769
        ]
      }
    },
    {
      "type": "Feature",
      "id": "node/460516181",
      "properties": {
        "public_transport": "stop_position",
        "railway": "halt",
        "train": "yes",
        "id": "node/460516181"
      },
      "geometry": {
        "type": "Point",
        "coordinates": [
          -81.1913703,
          23.014592
        ]
      }
    },
    {
      "type": "Feature",
      "id": "node/460516300",
      "properties": {
        "name": "Cárdenas",
        "public_transport": "station",
        "id": "node/460516300"
      },
      "geometry": {
        "type": "Point",
        "coordinates": [
          -81.1962463,
          23.0412873
        ]
      }
    },
    {
      "type": "Feature",
      "id": "node/461714034",
      "properties": {
        "name": "Guantánamo",
        "public_transport": "stop_position",
        "railway": "station",
        "train": "yes",
        "id": "node/461714034"
      },
      "geometry": {
        "type": "Point",
        "coordinates": [
          -75.2034619,
          20.1476515
        ]
      }
    },
    {
      "type": "Feature",
      "id": "node/462511716",
      "properties": {
        "name": "Guachinango",
        "operator": "Ferrocarriles de Cuba (FC)",
        "railway": "halt",
        "id": "node/462511716"
      },
      "geometry": {
        "type": "Point",
        "coordinates": [
          -79.8538256,
          21.8578104
        ]
      }
    },
    {
      "type": "Feature",
      "id": "node/469679320",
      "properties": {
        "public_transport": "stop_position",
        "railway": "halt",
        "train": "yes",
        "id": "node/469679320"
      },
      "geometry": {
        "type": "Point",
        "coordinates": [
          -76.5447816,
          20.3540047
        ]
      }
    },
    {
      "type": "Feature",
      "id": "node/469702065",
      "properties": {
        "name": "San Jacinto",
        "public_transport": "stop_position",
        "railway": "halt",
        "train": "yes",
        "id": "node/469702065"
      },
      "geometry": {
        "type": "Point",
        "coordinates": [
          -77.289937,
          21.5604675
        ]
      }
    },
    {
      "type": "Feature",
      "id": "node/480496977",
      "properties": {
        "name": "San Nicolás de Bari",
        "public_transport": "stop_position",
        "railway": "station",
        "train": "yes",
        "id": "node/480496977"
      },
      "geometry": {
        "type": "Point",
        "coordinates": [
          -81.9169642,
          22.7852422
        ]
      }
    },
    {
      "type": "Feature",
      "id": "node/492829462",
      "properties": {
        "name": "Guines",
        "public_transport": "stop_position",
        "railway": "station",
        "train": "yes",
        "id": "node/492829462"
      },
      "geometry": {
        "type": "Point",
        "coordinates": [
          -82.0311325,
          22.8337817
        ]
      }
    },
    {
      "type": "Feature",
      "id": "node/512448064",
      "properties": {
        "name": "Rio Seco",
        "public_transport": "stop_position",
        "railway": "halt",
        "train": "yes",
        "id": "node/512448064"
      },
      "geometry": {
        "type": "Point",
        "coordinates": [
          -81.9703962,
          22.8069338
        ]
      }
    },
    {
      "type": "Feature",
      "id": "node/512453143",
      "properties": {
        "description": "Estacion de trenes",
        "name": "San José de las Lajas",
        "public_transport": "stop_position",
        "railway": "station",
        "train": "yes",
        "id": "node/512453143"
      },
      "geometry": {
        "type": "Point",
        "coordinates": [
          -82.1517799,
          22.9602156
        ]
      }
    },
    {
      "type": "Feature",
      "id": "node/639403005",
      "properties": {
        "name": "Guara",
        "public_transport": "stop_position",
        "railway": "station",
        "train": "yes",
        "id": "node/639403005"
      },
      "geometry": {
        "type": "Point",
        "coordinates": [
          -82.2036066,
          22.807153
        ]
      }
    },
    {
      "type": "Feature",
      "id": "node/644443762",
      "properties": {
        "name": "Melena",
        "public_transport": "stop_position",
        "railway": "station",
        "train": "yes",
        "id": "node/644443762"
      },
      "geometry": {
        "type": "Point",
        "coordinates": [
          -82.1465024,
          22.8114319
        ]
      }
    },
    {
      "type": "Feature",
      "id": "node/646756763",
      "properties": {
        "name": "San Felipe",
        "public_transport": "stop_position",
        "railway": "station",
        "train": "yes",
        "id": "node/646756763"
      },
      "geometry": {
        "type": "Point",
        "coordinates": [
          -82.3115136,
          22.81976
        ]
      }
    },
    {
      "type": "Feature",
      "id": "node/673654664",
      "properties": {
        "name": "Camagüey",
        "operator": "Ferrocarriles de Cuba",
        "public_transport": "stop_position",
        "railway": "station",
        "train": "yes",
        "wheelchair": "no",
        "wikidata": "Q18386237",
        "id": "node/673654664"
      },
      "geometry": {
        "type": "Point",
        "coordinates": [
          -77.9142462,
          21.3890996
        ]
      }
    },
    {
      "type": "Feature",
      "id": "node/710908075",
      "properties": {
        "name": "Bartle",
        "public_transport": "stop_position",
        "railway": "station",
        "train": "yes",
        "id": "node/710908075"
      },
      "geometry": {
        "type": "Point",
        "coordinates": [
          -77.1226532,
          21.0537299
        ]
      }
    },
    {
      "type": "Feature",
      "id": "node/798556441",
      "properties": {
        "name": "Cienfuegos",
        "public_transport": "stop_position",
        "railway": "station",
        "train": "yes",
        "id": "node/798556441"
      },
      "geometry": {
        "type": "Point",
        "coordinates": [
          -80.4419843,
          22.1463323
        ]
      }
    },
    {
      "type": "Feature",
      "id": "node/1028811676",
      "properties": {
        "description": "Estaciòn ferroviaria",
        "name": "Pinar del Río",
        "public_transport": "stop_position",
        "railway": "station",
        "train": "yes",
        "id": "node/1028811676"
      },
      "geometry": {
        "type": "Point",
        "coordinates": [
          -83.690403,
          22.4106803
        ]
      }
    },
    {
      "type": "Feature",
      "id": "node/1028887091",
      "properties": {
        "railway": "halt",
        "id": "node/1028887091"
      },
      "geometry": {
        "type": "Point",
        "coordinates": [
          -83.7050983,
          22.3889356
        ]
      }
    },
    {
      "type": "Feature",
      "id": "node/1103266176",
      "properties": {
        "name": "San Pablo",
        "railway": "halt",
        "id": "node/1103266176"
      },
      "geometry": {
        "type": "Point",
        "coordinates": [
          -78.0514347,
          21.3452756
        ]
      }
    },
    {
      "type": "Feature",
      "id": "node/1122010603",
      "properties": {
        "name": "Avenida Granma",
        "public_transport": "stop_position",
        "railway": "halt",
        "train": "yes",
        "id": "node/1122010603"
      },
      "geometry": {
        "type": "Point",
        "coordinates": [
          -76.6300797,
          20.3695362
        ]
      }
    },
    {
      "type": "Feature",
      "id": "node/1126471655",
      "properties": {
        "name": "Vega de Palma (Vueltas)",
        "railway": "station",
        "id": "node/1126471655"
      },
      "geometry": {
        "type": "Point",
        "coordinates": [
          -79.694428,
          22.4902917
        ]
      }
    },
    {
      "type": "Feature",
      "id": "node/1126471842",
      "properties": {
        "name": "Punta de Diamantes",
        "public_transport": "stop_position",
        "railway": "halt",
        "train": "yes",
        "id": "node/1126471842"
      },
      "geometry": {
        "type": "Point",
        "coordinates": [
          -79.5240636,
          22.1095007
        ]
      }
    },
    {
      "type": "Feature",
      "id": "node/1252910603",
      "properties": {
        "name": "Sola",
        "public_transport": "stop_position",
        "railway": "station",
        "train": "yes",
        "id": "node/1252910603"
      },
      "geometry": {
        "type": "Point",
        "coordinates": [
          -77.681412,
          21.6757077
        ]
      }
    },
    {
      "type": "Feature",
      "id": "node/1304436338",
      "properties": {
        "name": "Concuní",
        "operator": "Ferrocarriles de Cuba (FC)",
        "public_transport": "stop_position",
        "railway": "station",
        "train": "yes",
        "id": "node/1304436338"
      },
      "geometry": {
        "type": "Point",
        "coordinates": [
          -81.8263171,
          23.1190897
        ]
      }
    },
    {
      "type": "Feature",
      "id": "node/1304436845",
      "properties": {
        "name": "San Adrian",
        "operator": "Ferrocarriles de Cuba (FC)",
        "public_transport": "stop_position",
        "railway": "halt",
        "train": "yes",
        "id": "node/1304436845"
      },
      "geometry": {
        "type": "Point",
        "coordinates": [
          -81.7071959,
          23.0903778
        ]
      }
    },
    {
      "type": "Feature",
      "id": "node/1304437116",
      "properties": {
        "name": "Avendaños",
        "operator": "Ferrocarriles de Cuba (FC)",
        "public_transport": "stop_position",
        "railway": "halt",
        "train": "yes",
        "id": "node/1304437116"
      },
      "geometry": {
        "type": "Point",
        "coordinates": [
          -81.7992524,
          23.117902
        ]
      }
    },
    {
      "type": "Feature",
      "id": "node/1304877135",
      "properties": {
        "name": "Los Mangos",
        "public_transport": "stop_position",
        "railway": "halt",
        "train": "yes",
        "id": "node/1304877135"
      },
      "geometry": {
        "type": "Point",
        "coordinates": [
          -80.0618991,
          22.5058492
        ]
      }
    },
    {
      "type": "Feature",
      "id": "node/1304879975",
      "properties": {
        "name": "Sitio Grande",
        "public_transport": "stop_position",
        "railway": "halt",
        "train": "yes",
        "id": "node/1304879975"
      },
      "geometry": {
        "type": "Point",
        "coordinates": [
          -80.0679423,
          22.6915769
        ]
      }
    },
    {
      "type": "Feature",
      "id": "node/1308265822",
      "properties": {
        "bus": "no",
        "name": "Esperanza",
        "public_transport": "stop_position",
        "railway": "stop",
        "train": "yes",
        "id": "node/1308265822"
      },
      "geometry": {
        "type": "Point",
        "coordinates": [
          -80.0966589,
          22.4428236
        ]
      }
    },
    {
      "type": "Feature",
      "id": "node/1308266155",
      "properties": {
        "name": "San Francisco",
        "public_transport": "stop_position",
        "railway": "halt",
        "train": "yes",
        "id": "node/1308266155"
      },
      "geometry": {
        "type": "Point",
        "coordinates": [
          -80.2384983,
          22.3516378
        ]
      }
    },
    {
      "type": "Feature",
      "id": "node/1308689881",
      "properties": {
        "name": "Ajuria",
        "public_transport": "stop_position",
        "railway": "halt",
        "train": "yes",
        "id": "node/1308689881"
      },
      "geometry": {
        "type": "Point",
        "coordinates": [
          -80.2955641,
          22.4817578
        ]
      }
    },
    {
      "type": "Feature",
      "id": "node/1315119954",
      "properties": {
        "building": "yes",
        "name": "Estacion 19 de Noviembre (Tulipán)",
        "public_transport": "station",
        "railway": "station",
        "short_name": "Tulipán",
        "id": "node/1315119954"
      },
      "geometry": {
        "type": "Point",
        "coordinates": [
          -82.3923068,
          23.1156067
        ]
      }
    },
    {
      "type": "Feature",
      "id": "node/1315315601",
      "properties": {
        "name": "Palos",
        "public_transport": "stop_position",
        "railway": "station",
        "train": "yes",
        "id": "node/1315315601"
      },
      "geometry": {
        "type": "Point",
        "coordinates": [
          -81.7425538,
          22.7970182
        ]
      }
    },
    {
      "type": "Feature",
      "id": "node/1324110538",
      "properties": {
        "name": "Veguitas",
        "public_transport": "stop_position",
        "railway": "station",
        "train": "yes",
        "id": "node/1324110538"
      },
      "geometry": {
        "type": "Point",
        "coordinates": [
          -76.9024453,
          20.3074257
        ]
      }
    },
    {
      "type": "Feature",
      "id": "node/1324114199",
      "properties": {
        "name": "Yara",
        "public_transport": "stop_position",
        "railway": "station",
        "train": "yes",
        "id": "node/1324114199"
      },
      "geometry": {
        "type": "Point",
        "coordinates": [
          -76.9577525,
          20.2778625
        ]
      }
    },
    {
      "type": "Feature",
      "id": "node/1327991756",
      "properties": {
        "name": "La Curva",
        "public_transport": "stop_position",
        "railway": "halt",
        "train": "yes",
        "id": "node/1327991756"
      },
      "geometry": {
        "type": "Point",
        "coordinates": [
          -75.935178,
          20.6641213
        ]
      }
    },
    {
      "type": "Feature",
      "id": "node/1329840766",
      "properties": {
        "public_transport": "stop_position",
        "railway": "halt",
        "train": "yes",
        "id": "node/1329840766"
      },
      "geometry": {
        "type": "Point",
        "coordinates": [
          -75.2106573,
          20.116446
        ]
      }
    },
    {
      "type": "Feature",
      "id": "node/1334816944",
      "properties": {
        "name": "Manatí",
        "public_transport": "stop_position",
        "railway": "station",
        "train": "yes",
        "id": "node/1334816944"
      },
      "geometry": {
        "type": "Point",
        "coordinates": [
          -76.9342072,
          21.3164504
        ]
      }
    },
    {
      "type": "Feature",
      "id": "node/1370122170",
      "properties": {
        "name": "Corojo",
        "public_transport": "stop_position",
        "railway": "halt",
        "train": "yes",
        "id": "node/1370122170"
      },
      "geometry": {
        "type": "Point",
        "coordinates": [
          -78.4649187,
          21.693545
        ]
      }
    },
    {
      "type": "Feature",
      "id": "node/1370122182",
      "properties": {
        "name": "Paradero Baragua",
        "public_transport": "station",
        "id": "node/1370122182"
      },
      "geometry": {
        "type": "Point",
        "coordinates": [
          -78.6345645,
          21.6946416
        ]
      }
    },
    {
      "type": "Feature",
      "id": "node/1393884975",
      "properties": {
        "name": "La Panchita",
        "railway": "halt",
        "id": "node/1393884975"
      },
      "geometry": {
        "type": "Point",
        "coordinates": [
          -80.4244121,
          22.9285886
        ]
      }
    },
    {
      "type": "Feature",
      "id": "node/1393885019",
      "properties": {
        "name": "Sierra Morena",
        "railway": "halt",
        "id": "node/1393885019"
      },
      "geometry": {
        "type": "Point",
        "coordinates": [
          -80.5179795,
          22.9553304
        ]
      }
    },
    {
      "type": "Feature",
      "id": "node/1395865211",
      "properties": {
        "name": "Florida",
        "public_transport": "stop_position",
        "railway": "station",
        "train": "yes",
        "id": "node/1395865211"
      },
      "geometry": {
        "type": "Point",
        "coordinates": [
          -78.2229313,
          21.5310494
        ]
      }
    },
    {
      "type": "Feature",
      "id": "node/1436352163",
      "properties": {
        "building": "yes",
        "name": "Ciego de Ávila",
        "public_transport": "stop_position",
        "railway": "station",
        "train": "yes",
        "id": "node/1436352163"
      },
      "geometry": {
        "type": "Point",
        "coordinates": [
          -78.7666665,
          21.8388623
        ]
      }
    },
    {
      "type": "Feature",
      "id": "node/1477491533",
      "properties": {
        "name": "Pozo Redondo",
        "public_transport": "stop_position",
        "railway": "halt",
        "train": "yes",
        "id": "node/1477491533"
      },
      "geometry": {
        "type": "Point",
        "coordinates": [
          -82.306073,
          22.7491104
        ]
      }
    },
    {
      "type": "Feature",
      "id": "node/1506032827",
      "properties": {
        "name": "Morón",
        "public_transport": "stop_position",
        "railway": "station",
        "train": "yes",
        "id": "node/1506032827"
      },
      "geometry": {
        "type": "Point",
        "coordinates": [
          -78.6267962,
          22.1041346
        ]
      }
    },
    {
      "type": "Feature",
      "id": "node/1507766718",
      "properties": {
        "name": "San Antonio de los Baños",
        "public_transport": "stop_position",
        "railway": "station",
        "train": "yes",
        "id": "node/1507766718"
      },
      "geometry": {
        "type": "Point",
        "coordinates": [
          -82.5018459,
          22.8862701
        ]
      }
    },
    {
      "type": "Feature",
      "id": "node/1522898466",
      "properties": {
        "name": "Esmeralda",
        "public_transport": "stop_position",
        "railway": "station",
        "train": "yes",
        "id": "node/1522898466"
      },
      "geometry": {
        "type": "Point",
        "coordinates": [
          -78.1141524,
          21.8504013
        ]
      }
    },
    {
      "type": "Feature",
      "id": "node/1602638067",
      "properties": {
        "name": "Carmen",
        "public_transport": "stop_position",
        "railway": "halt",
        "train": "yes",
        "id": "node/1602638067"
      },
      "geometry": {
        "type": "Point",
        "coordinates": [
          -82.100021,
          22.9055728
        ]
      }
    },
    {
      "type": "Feature",
      "id": "node/1712623280",
      "properties": {
        "railway": "halt",
        "id": "node/1712623280"
      },
      "geometry": {
        "type": "Point",
        "coordinates": [
          -76.8500638,
          21.0900296
        ]
      }
    },
    {
      "type": "Feature",
      "id": "node/1712623670",
      "properties": {
        "name": "Ferro-ómnibus Vázquez",
        "public_transport": "stop_position",
        "railway": "station",
        "train": "yes",
        "id": "node/1712623670"
      },
      "geometry": {
        "type": "Point",
        "coordinates": [
          -76.7293853,
          21.1402167
        ]
      }
    },
    {
      "type": "Feature",
      "id": "node/1730311896",
      "properties": {
        "public_transport": "stop_position",
        "railway": "halt",
        "train": "yes",
        "id": "node/1730311896"
      },
      "geometry": {
        "type": "Point",
        "coordinates": [
          -75.1822487,
          20.0028286
        ]
      }
    },
    {
      "type": "Feature",
      "id": "node/1731550762",
      "properties": {
        "name": "Carrera Larga",
        "public_transport": "stop_position",
        "railway": "halt",
        "train": "yes",
        "id": "node/1731550762"
      },
      "geometry": {
        "type": "Point",
        "coordinates": [
          -75.3169774,
          20.2400384
        ]
      }
    },
    {
      "type": "Feature",
      "id": "node/1731571319",
      "properties": {
        "name": "Sempre",
        "public_transport": "stop_position",
        "railway": "halt",
        "train": "yes",
        "id": "node/1731571319"
      },
      "geometry": {
        "type": "Point",
        "coordinates": [
          -75.2743461,
          20.2260724
        ]
      }
    },
    {
      "type": "Feature",
      "id": "node/1731575635",
      "properties": {
        "name": "Perseverancia",
        "railway": "halt",
        "id": "node/1731575635"
      },
      "geometry": {
        "type": "Point",
        "coordinates": [
          -75.2604689,
          20.2164898
        ]
      }
    },
    {
      "type": "Feature",
      "id": "node/1737685880",
      "properties": {
        "railway": "station",
        "id": "node/1737685880"
      },
      "geometry": {
        "type": "Point",
        "coordinates": [
          -80.7231694,
          22.7288901
        ]
      }
    },
    {
      "type": "Feature",
      "id": "node/1752571181",
      "properties": {
        "description": "Estación de Trenes",
        "name": "Alquizar",
        "public_transport": "stop_position",
        "railway": "station",
        "train": "yes",
        "id": "node/1752571181"
      },
      "geometry": {
        "type": "Point",
        "coordinates": [
          -82.5821275,
          22.8032554
        ]
      }
    },
    {
      "type": "Feature",
      "id": "node/1945859607",
      "properties": {
        "name": "Estación Sagua La Grande",
        "public_transport": "stop_position",
        "railway": "station",
        "train": "yes",
        "id": "node/1945859607"
      },
      "geometry": {
        "type": "Point",
        "coordinates": [
          -80.0745468,
          22.805409
        ]
      }
    },
    {
      "type": "Feature",
      "id": "node/2051460806",
      "properties": {
        "public_transport": "stop_position",
        "railway": "halt",
        "train": "yes",
        "id": "node/2051460806"
      },
      "geometry": {
        "type": "Point",
        "coordinates": [
          -76.7590565,
          20.9930949
        ]
      }
    },
    {
      "type": "Feature",
      "id": "node/2051461049",
      "properties": {
        "name": "Santa María Catorce",
        "public_transport": "stop_position",
        "railway": "halt",
        "train": "yes",
        "id": "node/2051461049"
      },
      "geometry": {
        "type": "Point",
        "coordinates": [
          -76.677111,
          20.9955973
        ]
      }
    },
    {
      "type": "Feature",
      "id": "node/2051461098",
      "properties": {
        "name": "Salgacero",
        "public_transport": "stop_position",
        "railway": "halt",
        "train": "yes",
        "id": "node/2051461098"
      },
      "geometry": {
        "type": "Point",
        "coordinates": [
          -76.6026423,
          21.0377384
        ]
      }
    },
    {
      "type": "Feature",
      "id": "node/2054308107",
      "properties": {
        "name": "Morón",
        "public_transport": "stop_position",
        "railway": "station",
        "train": "yes",
        "id": "node/2054308107"
      },
      "geometry": {
        "type": "Point",
        "coordinates": [
          -78.6267469,
          22.1041791
        ]
      }
    },
    {
      "type": "Feature",
      "id": "node/2054328439",
      "properties": {
        "name": "Violeta",
        "public_transport": "stop_position",
        "railway": "station",
        "train": "yes",
        "id": "node/2054328439"
      },
      "geometry": {
        "type": "Point",
        "coordinates": [
          -78.4296338,
          21.9458203
        ]
      }
    },
    {
      "type": "Feature",
      "id": "node/2064261483",
      "properties": {
        "name": "Perea",
        "public_transport": "stop_position",
        "railway": "station",
        "train": "yes",
        "id": "node/2064261483"
      },
      "geometry": {
        "type": "Point",
        "coordinates": [
          -79.0892476,
          22.1587614
        ]
      }
    },
    {
      "type": "Feature",
      "id": "node/2064640722",
      "properties": {
        "public_transport": "stop_position",
        "railway": "stop",
        "train": "yes",
        "id": "node/2064640722"
      },
      "geometry": {
        "type": "Point",
        "coordinates": [
          -82.3623402,
          23.0151895
        ]
      }
    },
    {
      "type": "Feature",
      "id": "node/2098914810",
      "properties": {
        "name": "Sancti Spiritus",
        "public_transport": "stop_position",
        "railway": "station",
        "train": "yes",
        "id": "node/2098914810"
      },
      "geometry": {
        "type": "Point",
        "coordinates": [
          -79.4464743,
          21.9228148
        ]
      }
    },
    {
      "type": "Feature",
      "id": "node/2100034306",
      "properties": {
        "railway": "halt",
        "id": "node/2100034306"
      },
      "geometry": {
        "type": "Point",
        "coordinates": [
          -78.8184215,
          22.2831719
        ]
      }
    },
    {
      "type": "Feature",
      "id": "node/2101688856",
      "properties": {
        "name": "Washington",
        "public_transport": "stop_position",
        "railway": "halt",
        "train": "yes",
        "id": "node/2101688856"
      },
      "geometry": {
        "type": "Point",
        "coordinates": [
          -80.3178249,
          22.5927735
        ]
      }
    },
    {
      "type": "Feature",
      "id": "node/2104001756",
      "properties": {
        "name": "Pelaez",
        "railway": "halt",
        "id": "node/2104001756"
      },
      "geometry": {
        "type": "Point",
        "coordinates": [
          -78.1823362,
          21.707989
        ]
      }
    },
    {
      "type": "Feature",
      "id": "node/2112692320",
      "properties": {
        "name": "Majagua",
        "public_transport": "stop_position",
        "railway": "station",
        "train": "yes",
        "id": "node/2112692320"
      },
      "geometry": {
        "type": "Point",
        "coordinates": [
          -78.9991471,
          21.9113562
        ]
      }
    },
    {
      "type": "Feature",
      "id": "node/2114061994",
      "properties": {
        "railway": "halt",
        "id": "node/2114061994"
      },
      "geometry": {
        "type": "Point",
        "coordinates": [
          -78.777637,
          22.3833502
        ]
      }
    },
    {
      "type": "Feature",
      "id": "node/2114062091",
      "properties": {
        "name": "Máximo Gómez",
        "public_transport": "station",
        "id": "node/2114062091"
      },
      "geometry": {
        "type": "Point",
        "coordinates": [
          -78.7853393,
          22.3853508
        ]
      }
    },
    {
      "type": "Feature",
      "id": "node/2149434877",
      "properties": {
        "name": "Jibacoa",
        "operator": "Ferrocarriles de Cuba (FC)",
        "public_transport": "stop_position",
        "railway": "station",
        "train": "yes",
        "id": "node/2149434877"
      },
      "geometry": {
        "type": "Point",
        "coordinates": [
          -81.8727025,
          23.1185562
        ]
      }
    },
    {
      "type": "Feature",
      "id": "node/2149434878",
      "properties": {
        "name": "Mena",
        "operator": "Ferrocarriles de Cuba (FC)",
        "public_transport": "stop_position",
        "railway": "halt",
        "train": "yes",
        "id": "node/2149434878"
      },
      "geometry": {
        "type": "Point",
        "coordinates": [
          -81.6162383,
          23.0707149
        ]
      }
    },
    {
      "type": "Feature",
      "id": "node/2149435057",
      "properties": {
        "name": "San Juan",
        "operator": "Ferrocarriles de Cuba (FC)",
        "public_transport": "stop_position",
        "railway": "halt",
        "train": "yes",
        "id": "node/2149435057"
      },
      "geometry": {
        "type": "Point",
        "coordinates": [
          -81.754302,
          23.1163691
        ]
      }
    },
    {
      "type": "Feature",
      "id": "node/2149825102",
      "properties": {
        "name": "Almenteros",
        "operator": "Ferrocarriles de Cuba (FC)",
        "public_transport": "stop_position",
        "railway": "halt",
        "train": "yes",
        "id": "node/2149825102"
      },
      "geometry": {
        "type": "Point",
        "coordinates": [
          -81.8086825,
          23.119043
        ]
      }
    },
    {
      "type": "Feature",
      "id": "node/2149825103",
      "properties": {
        "name": "Calderón",
        "operator": "Ferrocarriles de Cuba (FC)",
        "public_transport": "stop_position",
        "railway": "halt",
        "train": "yes",
        "id": "node/2149825103"
      },
      "geometry": {
        "type": "Point",
        "coordinates": [
          -81.8403767,
          23.1158048
        ]
      }
    },
    {
      "type": "Feature",
      "id": "node/2149825105",
      "properties": {
        "name": "Canasí",
        "operator": "Ferrocarriles de Cuba (FC)",
        "public_transport": "stop_position",
        "railway": "station",
        "train": "yes",
        "id": "node/2149825105"
      },
      "geometry": {
        "type": "Point",
        "coordinates": [
          -81.7843731,
          23.1141215
        ]
      }
    },
    {
      "type": "Feature",
      "id": "node/2149825106",
      "properties": {
        "name": "Casablanca",
        "network": "Hershey",
        "operator": "Ferrocarriles de Cuba (FC)",
        "public_transport": "stop_position",
        "railway": "station",
        "train": "yes",
        "id": "node/2149825106"
      },
      "geometry": {
        "type": "Point",
        "coordinates": [
          -82.3447694,
          23.1424018
        ]
      }
    },
    {
      "type": "Feature",
      "id": "node/2149825107",
      "properties": {
        "name": "Chucho Jagüey",
        "operator": "Ferrocarriles de Cuba (FC)",
        "public_transport": "stop_position",
        "railway": "halt",
        "train": "yes",
        "id": "node/2149825107"
      },
      "geometry": {
        "type": "Point",
        "coordinates": [
          -81.9408331,
          23.125237
        ]
      }
    },
    {
      "type": "Feature",
      "id": "node/2149825108",
      "properties": {
        "name": "Corral Nuevo",
        "operator": "Ferrocarriles de Cuba (FC)",
        "public_transport": "stop_position",
        "railway": "halt",
        "train": "yes",
        "id": "node/2149825108"
      },
      "geometry": {
        "type": "Point",
        "coordinates": [
          -81.6715656,
          23.0609327
        ]
      }
    },
    {
      "type": "Feature",
      "id": "node/2149825109",
      "properties": {
        "name": "Desquite",
        "operator": "Ferrocarriles de Cuba (FC)",
        "public_transport": "stop_position",
        "railway": "halt",
        "train": "yes",
        "id": "node/2149825109"
      },
      "geometry": {
        "type": "Point",
        "coordinates": [
          -81.7664574,
          23.1201397
        ]
      }
    },
    {
      "type": "Feature",
      "id": "node/2149825110",
      "properties": {
        "name": "Hershey",
        "operator": "Ferrocarriles de Cuba (FC)",
        "public_transport": "stop_position",
        "railway": "station",
        "train": "yes",
        "id": "node/2149825110"
      },
      "geometry": {
        "type": "Point",
        "coordinates": [
          -81.9398871,
          23.1343093
        ]
      }
    },
    {
      "type": "Feature",
      "id": "node/2149825112",
      "properties": {
        "name": "Las Cañadas",
        "operator": "Ferrocarriles de Cuba (FC)",
        "public_transport": "stop_position",
        "railway": "halt",
        "train": "yes",
        "id": "node/2149825112"
      },
      "geometry": {
        "type": "Point",
        "coordinates": [
          -81.7467446,
          23.116004
        ]
      }
    },
    {
      "type": "Feature",
      "id": "node/2149825113",
      "properties": {
        "name": "Los Mangos",
        "operator": "Ferrocarriles de Cuba (FC)",
        "public_transport": "stop_position",
        "railway": "halt",
        "train": "yes",
        "id": "node/2149825113"
      },
      "geometry": {
        "type": "Point",
        "coordinates": [
          -81.598623,
          23.0683894
        ]
      }
    },
    {
      "type": "Feature",
      "id": "node/2149825114",
      "properties": {
        "name": "Margot",
        "operator": "Ferrocarriles de Cuba (FC)",
        "public_transport": "stop_position",
        "railway": "halt",
        "train": "yes",
        "id": "node/2149825114"
      },
      "geometry": {
        "type": "Point",
        "coordinates": [
          -81.6386171,
          23.0627116
        ]
      }
    },
    {
      "type": "Feature",
      "id": "node/2149825116",
      "properties": {
        "name": "Nano",
        "operator": "Ferrocarriles de Cuba (FC)",
        "public_transport": "stop_position",
        "railway": "halt",
        "train": "yes",
        "id": "node/2149825116"
      },
      "geometry": {
        "type": "Point",
        "coordinates": [
          -81.7265838,
          23.108617
        ]
      }
    },
    {
      "type": "Feature",
      "id": "node/2149825117",
      "properties": {
        "name": "Paula",
        "operator": "Ferrocarriles de Cuba (FC)",
        "public_transport": "stop_position",
        "railway": "halt",
        "train": "yes",
        "id": "node/2149825117"
      },
      "geometry": {
        "type": "Point",
        "coordinates": [
          -81.9168465,
          23.1192501
        ]
      }
    },
    {
      "type": "Feature",
      "id": "node/2149826350",
      "properties": {
        "name": "San Antonio",
        "operator": "Ferrocarriles de Cuba (FC)",
        "public_transport": "stop_position",
        "railway": "station",
        "train": "yes",
        "id": "node/2149826350"
      },
      "geometry": {
        "type": "Point",
        "coordinates": [
          -81.6909133,
          23.0692737
        ]
      }
    },
    {
      "type": "Feature",
      "id": "node/2149826351",
      "properties": {
        "name": "San Esteban",
        "operator": "Ferrocarriles de Cuba (FC)",
        "public_transport": "stop_position",
        "railway": "halt",
        "train": "yes",
        "id": "node/2149826351"
      },
      "geometry": {
        "type": "Point",
        "coordinates": [
          -81.7177688,
          23.0989194
        ]
      }
    },
    {
      "type": "Feature",
      "id": "node/2149826352",
      "properties": {
        "name": "San José",
        "operator": "Ferrocarriles de Cuba (FC)",
        "public_transport": "stop_position",
        "railway": "station",
        "train": "yes",
        "id": "node/2149826352"
      },
      "geometry": {
        "type": "Point",
        "coordinates": [
          -81.7342884,
          23.1133712
        ]
      }
    },
    {
      "type": "Feature",
      "id": "node/2149826353",
      "properties": {
        "name": "San Lorenzo",
        "operator": "Ferrocarriles de Cuba (FC)",
        "public_transport": "stop_position",
        "railway": "station",
        "train": "yes",
        "id": "node/2149826353"
      },
      "geometry": {
        "type": "Point",
        "coordinates": [
          -81.8555152,
          23.1147501
        ]
      }
    },
    {
      "type": "Feature",
      "id": "node/2149826354",
      "properties": {
        "name": "San Mateo",
        "operator": "Ferrocarriles de Cuba (FC)",
        "public_transport": "stop_position",
        "railway": "halt",
        "train": "yes",
        "id": "node/2149826354"
      },
      "geometry": {
        "type": "Point",
        "coordinates": [
          -81.9046083,
          23.1164699
        ]
      }
    },
    {
      "type": "Feature",
      "id": "node/2149826355",
      "properties": {
        "name": "San Miguel",
        "operator": "Ferrocarriles de Cuba (FC)",
        "public_transport": "stop_position",
        "railway": "station",
        "train": "yes",
        "id": "node/2149826355"
      },
      "geometry": {
        "type": "Point",
        "coordinates": [
          -81.6455017,
          23.0595851
        ]
      }
    },
    {
      "type": "Feature",
      "id": "node/2149880158",
      "properties": {
        "name": "Guanabo",
        "operator": "Ferrocarriles de Cuba (FC)",
        "public_transport": "stop_position",
        "railway": "station",
        "train": "yes",
        "id": "node/2149880158"
      },
      "geometry": {
        "type": "Point",
        "coordinates": [
          -82.1243427,
          23.1519999
        ]
      }
    },
    {
      "type": "Feature",
      "id": "node/2149880159",
      "properties": {
        "name": "Playas del Este",
        "operator": "Ferrocarriles de Cuba (FC)",
        "public_transport": "stop_position",
        "railway": "station",
        "train": "yes",
        "id": "node/2149880159"
      },
      "geometry": {
        "type": "Point",
        "coordinates": [
          -82.1249632,
          23.1675682
        ]
      }
    },
    {
      "type": "Feature",
      "id": "node/2149880180",
      "properties": {
        "name": "Guanabo",
        "public_transport": "stop_position",
        "railway": "halt",
        "train": "yes",
        "id": "node/2149880180"
      },
      "geometry": {
        "type": "Point",
        "coordinates": [
          -82.1243548,
          23.1520495
        ]
      }
    },
    {
      "type": "Feature",
      "id": "node/2149893457",
      "properties": {
        "name": "Matanzas (Versalles)",
        "operator": "Ferrocarriles de Cuba (FC)",
        "public_transport": "stop_position",
        "railway": "station",
        "train": "yes",
        "id": "node/2149893457"
      },
      "geometry": {
        "type": "Point",
        "coordinates": [
          -81.574404,
          23.0519677
        ]
      }
    },
    {
      "type": "Feature",
      "id": "node/2151901571",
      "properties": {
        "name": "Condado",
        "operator": "Ferrocarriles de Cuba (FC)",
        "railway": "halt",
        "id": "node/2151901571"
      },
      "geometry": {
        "type": "Point",
        "coordinates": [
          -79.8340298,
          21.8762001
        ]
      }
    },
    {
      "type": "Feature",
      "id": "node/2151901573",
      "properties": {
        "name": "Manaca Iznaga",
        "operator": "Ferrocarriles de Cuba (FC)",
        "public_transport": "station",
        "railway": "station",
        "id": "node/2151901573"
      },
      "geometry": {
        "type": "Point",
        "coordinates": [
          -79.8673175,
          21.8409163
        ]
      }
    },
    {
      "type": "Feature",
      "id": "node/2151901574",
      "properties": {
        "name": "Los Coquitos",
        "operator": "Ferrocarriles de Cuba (FC)",
        "railway": "station",
        "id": "node/2151901574"
      },
      "geometry": {
        "type": "Point",
        "coordinates": [
          -79.8350412,
          21.8731704
        ]
      }
    },
    {
      "type": "Feature",
      "id": "node/2151901575",
      "properties": {
        "name": "Los Pastores",
        "name:es": "La Pastora",
        "operator": "Ferrocarriles de Cuba (FC)",
        "railway": "halt",
        "id": "node/2151901575"
      },
      "geometry": {
        "type": "Point",
        "coordinates": [
          -79.9764947,
          21.8226838
        ]
      }
    },
    {
      "type": "Feature",
      "id": "node/2151901577",
      "properties": {
        "name": "Meyer",
        "operator": "Ferrocarriles de Cuba (FC)",
        "public_transport": "station",
        "railway": "station",
        "id": "node/2151901577"
      },
      "geometry": {
        "type": "Point",
        "coordinates": [
          -79.8081966,
          21.9222302
        ]
      }
    },
    {
      "type": "Feature",
      "id": "node/2155624117",
      "properties": {
        "name": "Cándido González",
        "railway": "halt",
        "id": "node/2155624117"
      },
      "geometry": {
        "type": "Point",
        "coordinates": [
          -78.0238508,
          20.8123928
        ]
      }
    },
    {
      "type": "Feature",
      "id": "node/2160363352",
      "properties": {
        "name": "Altagracia",
        "operator": "Ferrocarriles de Cuba",
        "public_transport": "stop_position",
        "railway": "station",
        "train": "yes",
        "id": "node/2160363352"
      },
      "geometry": {
        "type": "Point",
        "coordinates": [
          -77.7505087,
          21.446582
        ]
      }
    },
    {
      "type": "Feature",
      "id": "node/2160363354",
      "properties": {
        "name": "Nuevitas",
        "operator": "Ferrocarriles de Cuba",
        "public_transport": "stop_position",
        "railway": "station",
        "train": "yes",
        "id": "node/2160363354"
      },
      "geometry": {
        "type": "Point",
        "coordinates": [
          -77.2581636,
          21.5437798
        ]
      }
    },
    {
      "type": "Feature",
      "id": "node/2179708888",
      "properties": {
        "bench": "yes",
        "name": "San Pedro Mayabon",
        "public_transport": "stop_position",
        "railway": "halt",
        "shelter": "yes",
        "train": "yes",
        "id": "node/2179708888"
      },
      "geometry": {
        "type": "Point",
        "coordinates": [
          -80.600903,
          22.6927069
        ]
      }
    },
    {
      "type": "Feature",
      "id": "node/2197612233",
      "properties": {
        "name": "Guira de Melena",
        "public_transport": "stop_position",
        "railway": "station",
        "train": "yes",
        "id": "node/2197612233"
      },
      "geometry": {
        "type": "Point",
        "coordinates": [
          -82.5070413,
          22.7990976
        ]
      }
    },
    {
      "type": "Feature",
      "id": "node/2209520686",
      "properties": {
        "name": "Florencia",
        "public_transport": "stop_position",
        "railway": "station",
        "train": "yes",
        "id": "node/2209520686"
      },
      "geometry": {
        "type": "Point",
        "coordinates": [
          -78.9750073,
          22.1463683
        ]
      }
    },
    {
      "type": "Feature",
      "id": "node/2209520765",
      "properties": {
        "name": "Chambas",
        "public_transport": "stop_position",
        "railway": "station",
        "train": "yes",
        "id": "node/2209520765"
      },
      "geometry": {
        "type": "Point",
        "coordinates": [
          -78.9180019,
          22.1906253
        ]
      }
    },
    {
      "type": "Feature",
      "id": "node/2216424008",
      "properties": {
        "name": "Paradero Esperanza (Línea Cienfuegos)",
        "public_transport": "station",
        "railway": "station",
        "id": "node/2216424008"
      },
      "geometry": {
        "type": "Point",
        "coordinates": [
          -80.0965968,
          22.4427578
        ]
      }
    },
    {
      "type": "Feature",
      "id": "node/2216435849",
      "properties": {
        "name": "Esperanza Vieja",
        "public_transport": "stop_position",
        "railway": "station",
        "train": "yes",
        "id": "node/2216435849"
      },
      "geometry": {
        "type": "Point",
        "coordinates": [
          -80.0925649,
          22.4472271
        ]
      }
    },
    {
      "type": "Feature",
      "id": "node/2281652343",
      "properties": {
        "name": "Venegas",
        "public_transport": "stop_position",
        "railway": "station",
        "train": "yes",
        "id": "node/2281652343"
      },
      "geometry": {
        "type": "Point",
        "coordinates": [
          -79.1432691,
          22.1681602
        ]
      }
    },
    {
      "type": "Feature",
      "id": "node/2295357592",
      "properties": {
        "name": "Jarahueca",
        "public_transport": "stop_position",
        "railway": "station",
        "train": "yes",
        "id": "node/2295357592"
      },
      "geometry": {
        "type": "Point",
        "coordinates": [
          -79.3321543,
          22.2424322
        ]
      }
    },
    {
      "type": "Feature",
      "id": "node/2306141101",
      "properties": {
        "name": "Ciénaga",
        "public_transport": "station",
        "railway": "station",
        "id": "node/2306141101"
      },
      "geometry": {
        "type": "Point",
        "coordinates": [
          -82.3946141,
          23.1075941
        ]
      }
    },
    {
      "type": "Feature",
      "id": "node/2425749336",
      "properties": {
        "name": "Palmira",
        "public_transport": "stop_position",
        "railway": "station",
        "train": "yes",
        "id": "node/2425749336"
      },
      "geometry": {
        "type": "Point",
        "coordinates": [
          -80.3913613,
          22.2410938
        ]
      }
    },
    {
      "type": "Feature",
      "id": "node/2431839884",
      "properties": {
        "railway": "halt",
        "id": "node/2431839884"
      },
      "geometry": {
        "type": "Point",
        "coordinates": [
          -78.1113757,
          21.8426243
        ]
      }
    },
    {
      "type": "Feature",
      "id": "node/2597819089",
      "properties": {
        "name": "Nandín",
        "railway": "halt",
        "id": "node/2597819089"
      },
      "geometry": {
        "type": "Point",
        "coordinates": [
          -78.1105649,
          21.8279906
        ]
      }
    },
    {
      "type": "Feature",
      "id": "node/2598901982",
      "properties": {
        "name": "Jaronú",
        "public_transport": "stop_position",
        "railway": "station",
        "train": "yes",
        "id": "node/2598901982"
      },
      "geometry": {
        "type": "Point",
        "coordinates": [
          -77.9545562,
          21.8004867
        ]
      }
    },
    {
      "type": "Feature",
      "id": "node/2672332323",
      "properties": {
        "name": "Artemisa",
        "public_transport": "stop_position",
        "railway": "station",
        "train": "yes",
        "id": "node/2672332323"
      },
      "geometry": {
        "type": "Point",
        "coordinates": [
          -82.7594571,
          22.8081497
        ]
      }
    },
    {
      "type": "Feature",
      "id": "node/2793331790",
      "properties": {
        "name": "Abel Santamaria",
        "railway": "halt",
        "id": "node/2793331790"
      },
      "geometry": {
        "type": "Point",
        "coordinates": [
          -79.85833,
          22.5925351
        ]
      }
    },
    {
      "type": "Feature",
      "id": "node/2795177689",
      "properties": {
        "name": "Rancho Veloz",
        "railway": "halt",
        "id": "node/2795177689"
      },
      "geometry": {
        "type": "Point",
        "coordinates": [
          -80.3865995,
          22.8818052
        ]
      }
    },
    {
      "type": "Feature",
      "id": "node/2795179342",
      "properties": {
        "name": "Lutgardita",
        "railway": "halt",
        "id": "node/2795179342"
      },
      "geometry": {
        "type": "Point",
        "coordinates": [
          -80.2992749,
          22.8731027
        ]
      }
    },
    {
      "type": "Feature",
      "id": "node/2795179573",
      "properties": {
        "name": "La Caridad",
        "railway": "halt",
        "id": "node/2795179573"
      },
      "geometry": {
        "type": "Point",
        "coordinates": [
          -80.4100102,
          22.9195191
        ]
      }
    },
    {
      "type": "Feature",
      "id": "node/2815026511",
      "properties": {
        "name": "Velasco",
        "public_transport": "stop_position",
        "railway": "station",
        "train": "yes",
        "id": "node/2815026511"
      },
      "geometry": {
        "type": "Point",
        "coordinates": [
          -78.321034,
          21.9226839
        ]
      }
    },
    {
      "type": "Feature",
      "id": "node/2821506772",
      "properties": {
        "name": "Manacas",
        "public_transport": "stop_position",
        "railway": "halt",
        "train": "yes",
        "id": "node/2821506772"
      },
      "geometry": {
        "type": "Point",
        "coordinates": [
          -80.3368801,
          22.599547
        ]
      }
    },
    {
      "type": "Feature",
      "id": "node/2829086127",
      "properties": {
        "name": "Céspedes",
        "public_transport": "stop_position",
        "railway": "station",
        "train": "yes",
        "id": "node/2829086127"
      },
      "geometry": {
        "type": "Point",
        "coordinates": [
          -78.2775087,
          21.5766917
        ]
      }
    },
    {
      "type": "Feature",
      "id": "node/2834328923",
      "properties": {
        "name": "Navajas",
        "public_transport": "stop_position",
        "railway": "station",
        "train": "yes",
        "id": "node/2834328923"
      },
      "geometry": {
        "type": "Point",
        "coordinates": [
          -81.3294813,
          22.7286599
        ]
      }
    },
    {
      "type": "Feature",
      "id": "node/2834369703",
      "properties": {
        "name": "Ciego",
        "railway": "halt",
        "id": "node/2834369703"
      },
      "geometry": {
        "type": "Point",
        "coordinates": [
          -81.2723062,
          22.7591867
        ]
      }
    },
    {
      "type": "Feature",
      "id": "node/2836111124",
      "properties": {
        "name": "Creosola",
        "railway": "halt",
        "id": "node/2836111124"
      },
      "geometry": {
        "type": "Point",
        "coordinates": [
          -84.0847201,
          22.1863434
        ]
      }
    },
    {
      "type": "Feature",
      "id": "node/2840468440",
      "properties": {
        "name": "Mella (Miranda)",
        "public_transport": "stop_position",
        "railway": "station",
        "train": "yes",
        "id": "node/2840468440"
      },
      "geometry": {
        "type": "Point",
        "coordinates": [
          -75.9139413,
          20.3799494
        ]
      }
    },
    {
      "type": "Feature",
      "id": "node/2840468604",
      "properties": {
        "name": "Sabanilla",
        "public_transport": "stop_position",
        "railway": "halt",
        "train": "yes",
        "id": "node/2840468604"
      },
      "geometry": {
        "type": "Point",
        "coordinates": [
          -75.5856869,
          20.1859387
        ]
      }
    },
    {
      "type": "Feature",
      "id": "node/2842251769",
      "properties": {
        "name": "El Cristo",
        "public_transport": "stop_position",
        "railway": "station",
        "train": "yes",
        "id": "node/2842251769"
      },
      "geometry": {
        "type": "Point",
        "coordinates": [
          -75.7458716,
          20.1159402
        ]
      }
    },
    {
      "type": "Feature",
      "id": "node/2842253279",
      "properties": {
        "name": "Guaninao",
        "public_transport": "stop_position",
        "railway": "halt",
        "train": "yes",
        "id": "node/2842253279"
      },
      "geometry": {
        "type": "Point",
        "coordinates": [
          -76.1831359,
          20.2995133
        ]
      }
    },
    {
      "type": "Feature",
      "id": "node/2842254191",
      "properties": {
        "name": "Jiguaní",
        "public_transport": "stop_position",
        "railway": "station",
        "train": "yes",
        "id": "node/2842254191"
      },
      "geometry": {
        "type": "Point",
        "coordinates": [
          -76.4291391,
          20.3625423
        ]
      }
    },
    {
      "type": "Feature",
      "id": "node/2851392337",
      "properties": {
        "name": "Tiffin",
        "public_transport": "stop_position",
        "railway": "halt",
        "train": "yes",
        "id": "node/2851392337"
      },
      "geometry": {
        "type": "Point",
        "coordinates": [
          -77.3305117,
          21.5493362
        ]
      }
    },
    {
      "type": "Feature",
      "id": "node/2856393780",
      "properties": {
        "name": "General Carrillo",
        "public_transport": "stop_position",
        "railway": "station",
        "train": "yes",
        "id": "node/2856393780"
      },
      "geometry": {
        "type": "Point",
        "coordinates": [
          -79.3974828,
          22.2693165
        ]
      }
    },
    {
      "type": "Feature",
      "id": "node/2856393908",
      "properties": {
        "name": "Ariosa",
        "public_transport": "stop_position",
        "railway": "station",
        "train": "yes",
        "id": "node/2856393908"
      },
      "geometry": {
        "type": "Point",
        "coordinates": [
          -79.4829978,
          22.2880738
        ]
      }
    },
    {
      "type": "Feature",
      "id": "node/2856394127",
      "properties": {
        "name": "Placetas",
        "public_transport": "stop_position",
        "railway": "station",
        "train": "yes",
        "id": "node/2856394127"
      },
      "geometry": {
        "type": "Point",
        "coordinates": [
          -79.6697208,
          22.3001299
        ]
      }
    },
    {
      "type": "Feature",
      "id": "node/2874352221",
      "properties": {
        "name": "Coliseo",
        "public_transport": "stop_position",
        "railway": "station",
        "train": "yes",
        "id": "node/2874352221"
      },
      "geometry": {
        "type": "Point",
        "coordinates": [
          -81.296045,
          22.9092016
        ]
      }
    },
    {
      "type": "Feature",
      "id": "node/2877600517",
      "properties": {
        "name": "Campo Florido",
        "public_transport": "stop_position",
        "railway": "station",
        "train": "yes",
        "id": "node/2877600517"
      },
      "geometry": {
        "type": "Point",
        "coordinates": [
          -82.1259285,
          23.1158852
        ]
      }
    },
    {
      "type": "Feature",
      "id": "node/2925075943",
      "properties": {
        "name": "Estación del ferrocarril",
        "public_transport": "station",
        "railway": "station",
        "id": "node/2925075943"
      },
      "geometry": {
        "type": "Point",
        "coordinates": [
          -80.1484598,
          22.3750472
        ]
      }
    },
    {
      "type": "Feature",
      "id": "node/2958947262",
      "properties": {
        "name": "Circunvalación",
        "public_transport": "stop_position",
        "railway": "halt",
        "train": "yes",
        "id": "node/2958947262"
      },
      "geometry": {
        "type": "Point",
        "coordinates": [
          -80.4315533,
          22.163588
        ]
      }
    },
    {
      "type": "Feature",
      "id": "node/3094642407",
      "properties": {
        "name": "Vedado Seis",
        "public_transport": "stop_position",
        "railway": "halt",
        "train": "yes",
        "id": "node/3094642407"
      },
      "geometry": {
        "type": "Point",
        "coordinates": [
          -76.5131747,
          21.0527075
        ]
      }
    },
    {
      "type": "Feature",
      "id": "node/3094643961",
      "properties": {
        "public_transport": "stop_position",
        "railway": "halt",
        "train": "yes",
        "id": "node/3094643961"
      },
      "geometry": {
        "type": "Point",
        "coordinates": [
          -76.5184872,
          21.1669812
        ]
      }
    },
    {
      "type": "Feature",
      "id": "node/3094644109",
      "properties": {
        "name": "Vedado Tres",
        "public_transport": "stop_position",
        "railway": "halt",
        "train": "yes",
        "id": "node/3094644109"
      },
      "geometry": {
        "type": "Point",
        "coordinates": [
          -76.4900531,
          21.1071297
        ]
      }
    },
    {
      "type": "Feature",
      "id": "node/3097599285",
      "properties": {
        "name": "Santayana",
        "public_transport": "stop_position",
        "railway": "halt",
        "train": "yes",
        "id": "node/3097599285"
      },
      "geometry": {
        "type": "Point",
        "coordinates": [
          -77.854138,
          21.3373674
        ]
      }
    },
    {
      "type": "Feature",
      "id": "node/3102584728",
      "properties": {
        "name": "Cenizas",
        "public_transport": "stop_position",
        "railway": "stop",
        "train": "yes",
        "id": "node/3102584728"
      },
      "geometry": {
        "type": "Point",
        "coordinates": [
          -79.8689978,
          22.4038087
        ]
      }
    },
    {
      "type": "Feature",
      "id": "node/3113175659",
      "properties": {
        "name": "Mir",
        "public_transport": "stop_position",
        "railway": "station",
        "train": "yes",
        "id": "node/3113175659"
      },
      "geometry": {
        "type": "Point",
        "coordinates": [
          -76.6364345,
          20.7822435
        ]
      }
    },
    {
      "type": "Feature",
      "id": "node/3113176327",
      "properties": {
        "name": "Sabanazo",
        "public_transport": "stop_position",
        "railway": "station",
        "train": "yes",
        "id": "node/3113176327"
      },
      "geometry": {
        "type": "Point",
        "coordinates": [
          -76.6981653,
          20.8074916
        ]
      }
    },
    {
      "type": "Feature",
      "id": "node/3113176712",
      "properties": {
        "name": "Omaja",
        "public_transport": "stop_position",
        "railway": "station",
        "train": "yes",
        "id": "node/3113176712"
      },
      "geometry": {
        "type": "Point",
        "coordinates": [
          -76.7446277,
          20.8372413
        ]
      }
    },
    {
      "type": "Feature",
      "id": "node/3115320903",
      "properties": {
        "name": "Honduras",
        "public_transport": "stop_position",
        "railway": "station",
        "train": "yes",
        "id": "node/3115320903"
      },
      "geometry": {
        "type": "Point",
        "coordinates": [
          -75.1278334,
          20.2095771
        ]
      }
    },
    {
      "type": "Feature",
      "id": "node/3119234775",
      "properties": {
        "name": "Martí",
        "old_name": "Imar",
        "public_transport": "stop_position",
        "railway": "station",
        "train": "yes",
        "id": "node/3119234775"
      },
      "geometry": {
        "type": "Point",
        "coordinates": [
          -77.4558805,
          21.1459045
        ]
      }
    },
    {
      "type": "Feature",
      "id": "node/3120742440",
      "properties": {
        "name": "El Corojo",
        "public_transport": "stop_position",
        "railway": "halt",
        "train": "yes",
        "id": "node/3120742440"
      },
      "geometry": {
        "type": "Point",
        "coordinates": [
          -76.7650856,
          20.9679915
        ]
      }
    },
    {
      "type": "Feature",
      "id": "node/3121059122",
      "properties": {
        "name": "Duany 5",
        "public_transport": "stop_position",
        "railway": "halt",
        "train": "yes",
        "id": "node/3121059122"
      },
      "geometry": {
        "type": "Point",
        "coordinates": [
          -75.9632143,
          20.5307794
        ]
      }
    },
    {
      "type": "Feature",
      "id": "node/3121059653",
      "properties": {
        "name": "Colás",
        "public_transport": "stop_position",
        "railway": "halt",
        "train": "yes",
        "id": "node/3121059653"
      },
      "geometry": {
        "type": "Point",
        "coordinates": [
          -76.0150052,
          20.5488763
        ]
      }
    },
    {
      "type": "Feature",
      "id": "node/3123303323",
      "properties": {
        "name": "Surgidero de Batabanó",
        "public_transport": "stop_position",
        "railway": "station",
        "train": "yes",
        "id": "node/3123303323"
      },
      "geometry": {
        "type": "Point",
        "coordinates": [
          -82.295589,
          22.6839823
        ]
      }
    },
    {
      "type": "Feature",
      "id": "node/3138111426",
      "properties": {
        "name": "Peonía",
        "public_transport": "stop_position",
        "railway": "halt",
        "train": "yes",
        "id": "node/3138111426"
      },
      "geometry": {
        "type": "Point",
        "coordinates": [
          -78.6663465,
          22.1262851
        ]
      }
    },
    {
      "type": "Feature",
      "id": "node/3159745521",
      "properties": {
        "name": "Jumagua",
        "railway": "halt",
        "id": "node/3159745521"
      },
      "geometry": {
        "type": "Point",
        "coordinates": [
          -80.1246418,
          22.8071443
        ]
      }
    },
    {
      "type": "Feature",
      "id": "node/3166944465",
      "properties": {
        "name": "Aeropuerto",
        "public_transport": "stop_position",
        "railway": "halt",
        "train": "yes",
        "id": "node/3166944465"
      },
      "geometry": {
        "type": "Point",
        "coordinates": [
          -76.940135,
          20.9752649
        ]
      }
    },
    {
      "type": "Feature",
      "id": "node/3167003476",
      "properties": {
        "public_transport": "stop_position",
        "railway": "halt",
        "train": "yes",
        "id": "node/3167003476"
      },
      "geometry": {
        "type": "Point",
        "coordinates": [
          -76.9428469,
          20.9699583
        ]
      }
    },
    {
      "type": "Feature",
      "id": "node/3175558825",
      "properties": {
        "name": "Jatibonico (Vieja)",
        "railway": "halt",
        "id": "node/3175558825"
      },
      "geometry": {
        "type": "Point",
        "coordinates": [
          -79.1734651,
          21.9414748
        ]
      }
    },
    {
      "type": "Feature",
      "id": "node/3189073655",
      "properties": {
        "name": "Matanzas Central",
        "public_transport": "stop_position",
        "railway": "station",
        "train": "yes",
        "id": "node/3189073655"
      },
      "geometry": {
        "type": "Point",
        "coordinates": [
          -81.583388,
          23.0252104
        ]
      }
    },
    {
      "type": "Feature",
      "id": "node/3189663788",
      "properties": {
        "name": "Guanábana",
        "public_transport": "stop_position",
        "railway": "halt",
        "train": "yes",
        "id": "node/3189663788"
      },
      "geometry": {
        "type": "Point",
        "coordinates": [
          -81.5128392,
          22.9831215
        ]
      }
    },
    {
      "type": "Feature",
      "id": "node/3189733236",
      "properties": {
        "name": "Peñas Altas",
        "public_transport": "stop_position",
        "railway": "halt",
        "train": "yes",
        "id": "node/3189733236"
      },
      "geometry": {
        "type": "Point",
        "coordinates": [
          -82.0742142,
          23.1504645
        ]
      }
    },
    {
      "type": "Feature",
      "id": "node/3189733682",
      "properties": {
        "name": "San Francisco",
        "public_transport": "stop_position",
        "railway": "halt",
        "train": "yes",
        "id": "node/3189733682"
      },
      "geometry": {
        "type": "Point",
        "coordinates": [
          -82.044125,
          23.1433828
        ]
      }
    },
    {
      "type": "Feature",
      "id": "node/3189821347",
      "properties": {
        "bus": "no",
        "name": "San Antonio de Río Blanco",
        "public_transport": "stop_position",
        "railway": "halt",
        "train": "yes",
        "id": "node/3189821347"
      },
      "geometry": {
        "type": "Point",
        "coordinates": [
          -81.9647917,
          23.0770462
        ]
      }
    },
    {
      "type": "Feature",
      "id": "node/3194889762",
      "properties": {
        "name": "Aguada de Pasajeros",
        "public_transport": "stop_position",
        "railway": "station",
        "train": "yes",
        "id": "node/3194889762"
      },
      "geometry": {
        "type": "Point",
        "coordinates": [
          -80.8475089,
          22.3826158
        ]
      }
    },
    {
      "type": "Feature",
      "id": "node/3200113970",
      "properties": {
        "name": "Agramonte",
        "public_transport": "stop_position",
        "railway": "station",
        "train": "yes",
        "id": "node/3200113970"
      },
      "geometry": {
        "type": "Point",
        "coordinates": [
          -81.1150523,
          22.6731226
        ]
      }
    },
    {
      "type": "Feature",
      "id": "node/3200113971",
      "properties": {
        "name": "Amarillas",
        "public_transport": "stop_position",
        "railway": "station",
        "train": "yes",
        "id": "node/3200113971"
      },
      "geometry": {
        "type": "Point",
        "coordinates": [
          -80.9112175,
          22.4776484
        ]
      }
    },
    {
      "type": "Feature",
      "id": "node/3200113972",
      "properties": {
        "name": "Bolondrón",
        "public_transport": "stop_position",
        "railway": "station",
        "train": "yes",
        "id": "node/3200113972"
      },
      "geometry": {
        "type": "Point",
        "coordinates": [
          -81.4475028,
          22.7609286
        ]
      }
    },
    {
      "type": "Feature",
      "id": "node/3200113973",
      "properties": {
        "name": "Guareiras",
        "public_transport": "stop_position",
        "railway": "station",
        "train": "yes",
        "id": "node/3200113973"
      },
      "geometry": {
        "type": "Point",
        "coordinates": [
          -80.9294273,
          22.6483201
        ]
      }
    },
    {
      "type": "Feature",
      "id": "node/3200113974",
      "properties": {
        "name": "La Isabel",
        "public_transport": "stop_position",
        "railway": "station",
        "train": "yes",
        "id": "node/3200113974"
      },
      "geometry": {
        "type": "Point",
        "coordinates": [
          -81.2050968,
          22.7029849
        ]
      }
    },
    {
      "type": "Feature",
      "id": "node/3200113975",
      "properties": {
        "name": "Pedro Betancourt",
        "public_transport": "stop_position",
        "railway": "station",
        "train": "yes",
        "id": "node/3200113975"
      },
      "geometry": {
        "type": "Point",
        "coordinates": [
          -81.2937728,
          22.7249804
        ]
      }
    },
    {
      "type": "Feature",
      "id": "node/3200116540",
      "properties": {
        "name": "Vegas",
        "public_transport": "stop_position",
        "railway": "station",
        "train": "yes",
        "id": "node/3200116540"
      },
      "geometry": {
        "type": "Point",
        "coordinates": [
          -81.8173711,
          22.7913838
        ]
      }
    },
    {
      "type": "Feature",
      "id": "node/3200140393",
      "properties": {
        "name": "Céspedes",
        "railway": "station",
        "id": "node/3200140393"
      },
      "geometry": {
        "type": "Point",
        "coordinates": [
          -80.8513772,
          22.54558
        ]
      }
    },
    {
      "type": "Feature",
      "id": "node/3201271304",
      "properties": {
        "name": "Camajuaní Vieja",
        "railway": "station",
        "id": "node/3201271304"
      },
      "geometry": {
        "type": "Point",
        "coordinates": [
          -79.7200085,
          22.4632336
        ]
      }
    },
    {
      "type": "Feature",
      "id": "node/3201271305",
      "properties": {
        "name": "Camajuaní",
        "public_transport": "stop_position",
        "railway": "halt",
        "train": "yes",
        "id": "node/3201271305"
      },
      "geometry": {
        "type": "Point",
        "coordinates": [
          -79.7240761,
          22.468747
        ]
      }
    },
    {
      "type": "Feature",
      "id": "node/3202209695",
      "properties": {
        "name": "Santa Clara",
        "public_transport": "stop_position",
        "railway": "station",
        "train": "yes",
        "wikidata": "Q7419348",
        "id": "node/3202209695"
      },
      "geometry": {
        "type": "Point",
        "coordinates": [
          -79.9658907,
          22.4134862
        ]
      }
    },
    {
      "type": "Feature",
      "id": "node/3210039988",
      "properties": {
        "name": "Holguín",
        "public_transport": "stop_position",
        "railway": "station",
        "train": "yes",
        "id": "node/3210039988"
      },
      "geometry": {
        "type": "Point",
        "coordinates": [
          -76.2562288,
          20.8799407
        ]
      }
    },
    {
      "type": "Feature",
      "id": "node/3212079680",
      "properties": {
        "name": "Cacocum",
        "public_transport": "stop_position",
        "railway": "station",
        "train": "yes",
        "id": "node/3212079680"
      },
      "geometry": {
        "type": "Point",
        "coordinates": [
          -76.3245252,
          20.740002
        ]
      }
    },
    {
      "type": "Feature",
      "id": "node/3266641177",
      "properties": {
        "name": "Santiago de las Vegas",
        "public_transport": "station",
        "railway": "station",
        "id": "node/3266641177"
      },
      "geometry": {
        "type": "Point",
        "coordinates": [
          -82.3935565,
          22.9699022
        ]
      }
    },
    {
      "type": "Feature",
      "id": "node/3267736370",
      "properties": {
        "building": "yes",
        "name": "Rancho Boyeros (General Peraza)",
        "public_transport": "station",
        "railway": "station",
        "id": "node/3267736370"
      },
      "geometry": {
        "type": "Point",
        "coordinates": [
          -82.3877783,
          23.0020985
        ]
      }
    },
    {
      "type": "Feature",
      "id": "node/3268636462",
      "properties": {
        "name": "Arroyo Naranjo",
        "public_transport": "platform",
        "railway": "halt",
        "train": "yes",
        "id": "node/3268636462"
      },
      "geometry": {
        "type": "Point",
        "coordinates": [
          -82.3696704,
          23.0343113
        ]
      }
    },
    {
      "type": "Feature",
      "id": "node/3268636463",
      "properties": {
        "name": "Calabazar",
        "public_transport": "station",
        "railway": "station",
        "id": "node/3268636463"
      },
      "geometry": {
        "type": "Point",
        "coordinates": [
          -82.3702872,
          23.0180359
        ]
      }
    },
    {
      "type": "Feature",
      "id": "node/3268636474",
      "properties": {
        "building": "yes",
        "name": "Los Pinos",
        "public_transport": "station",
        "railway": "station",
        "id": "node/3268636474"
      },
      "geometry": {
        "type": "Point",
        "coordinates": [
          -82.3777807,
          23.0642285
        ]
      }
    },
    {
      "type": "Feature",
      "id": "node/3270236171",
      "properties": {
        "building": "yes",
        "name": "Luyanó",
        "public_transport": "stop_position",
        "railway": "station",
        "train": "yes",
        "id": "node/3270236171"
      },
      "geometry": {
        "type": "Point",
        "coordinates": [
          -82.3488399,
          23.1055791
        ]
      }
    },
    {
      "type": "Feature",
      "id": "node/3271185435",
      "properties": {
        "name": "Cotorro",
        "public_transport": "stop_position",
        "railway": "station",
        "train": "yes",
        "id": "node/3271185435"
      },
      "geometry": {
        "type": "Point",
        "coordinates": [
          -82.2680244,
          23.042165
        ]
      }
    },
    {
      "type": "Feature",
      "id": "node/3271185448",
      "properties": {
        "name": "Expocuba",
        "public_transport": "stop_position",
        "railway": "station",
        "train": "yes",
        "id": "node/3271185448"
      },
      "geometry": {
        "type": "Point",
        "coordinates": [
          -82.3488247,
          22.9943786
        ]
      }
    },
    {
      "type": "Feature",
      "id": "node/3277933001",
      "properties": {
        "name": "Yaguaramas",
        "railway": "station",
        "id": "node/3277933001"
      },
      "geometry": {
        "type": "Point",
        "coordinates": [
          -80.7187866,
          22.2536003
        ]
      }
    },
    {
      "type": "Feature",
      "id": "node/3283027802",
      "properties": {
        "bench": "yes",
        "name": "Aeropuerto",
        "public_transport": "platform",
        "railway": "halt",
        "shelter": "yes",
        "id": "node/3283027802"
      },
      "geometry": {
        "type": "Point",
        "coordinates": [
          -82.3909226,
          22.9959701
        ]
      }
    },
    {
      "type": "Feature",
      "id": "node/3283027805",
      "properties": {
        "name": "Arday",
        "public_transport": "platform",
        "railway": "halt",
        "shelter": "yes",
        "train": "yes",
        "id": "node/3283027805"
      },
      "geometry": {
        "type": "Point",
        "coordinates": [
          -82.3756645,
          23.0548446
        ]
      }
    },
    {
      "type": "Feature",
      "id": "node/3283027807",
      "properties": {
        "name": "Bejucal",
        "public_transport": "station",
        "railway": "station",
        "id": "node/3283027807"
      },
      "geometry": {
        "type": "Point",
        "coordinates": [
          -82.3879221,
          22.9223859
        ]
      }
    },
    {
      "type": "Feature",
      "id": "node/3283027808",
      "properties": {
        "name": "Campana",
        "public_transport": "stop_position",
        "railway": "halt",
        "train": "yes",
        "id": "node/3283027808"
      },
      "geometry": {
        "type": "Point",
        "coordinates": [
          -82.2847963,
          23.0538179
        ]
      }
    },
    {
      "type": "Feature",
      "id": "node/3283027809",
      "properties": {
        "name": "Cuatro Caminos",
        "public_transport": "stop_position",
        "railway": "halt",
        "train": "yes",
        "id": "node/3283027809"
      },
      "geometry": {
        "type": "Point",
        "coordinates": [
          -82.2173841,
          23.0024537
        ]
      }
    },
    {
      "type": "Feature",
      "id": "node/3283027810",
      "properties": {
        "bus": "yes",
        "highway": "bus_stop",
        "name": "Dolores",
        "public_transport": "stop_position",
        "railway": "halt",
        "train": "yes",
        "id": "node/3283027810"
      },
      "geometry": {
        "type": "Point",
        "coordinates": [
          -82.3299586,
          23.0821399
        ]
      }
    },
    {
      "type": "Feature",
      "id": "node/3283027811",
      "properties": {
        "name": "Jamaica",
        "public_transport": "stop_position",
        "railway": "halt",
        "train": "yes",
        "id": "node/3283027811"
      },
      "geometry": {
        "type": "Point",
        "coordinates": [
          -82.1713823,
          22.9769019
        ]
      }
    },
    {
      "type": "Feature",
      "id": "node/3283027815",
      "properties": {
        "name": "Lawton",
        "public_transport": "stop_position",
        "railway": "halt",
        "train": "yes",
        "id": "node/3283027815"
      },
      "geometry": {
        "type": "Point",
        "coordinates": [
          -82.346369,
          23.0876223
        ]
      }
    },
    {
      "type": "Feature",
      "id": "node/3283027817",
      "properties": {
        "name": "Loma de Tierra",
        "public_transport": "stop_position",
        "railway": "halt",
        "train": "yes",
        "id": "node/3283027817"
      },
      "geometry": {
        "type": "Point",
        "coordinates": [
          -82.2445899,
          23.026892
        ]
      }
    },
    {
      "type": "Feature",
      "id": "node/3283027818",
      "properties": {
        "name": "Martí",
        "public_transport": "stop_position",
        "railway": "halt",
        "shelter": "yes",
        "train": "yes",
        "id": "node/3283027818"
      },
      "geometry": {
        "type": "Point",
        "coordinates": [
          -82.3436539,
          23.0936306
        ]
      }
    },
    {
      "type": "Feature",
      "id": "node/3283027819",
      "properties": {
        "name": "Miraflores",
        "railway": "halt",
        "id": "node/3283027819"
      },
      "geometry": {
        "type": "Point",
        "coordinates": [
          -82.3788112,
          23.0714542
        ]
      }
    },
    {
      "type": "Feature",
      "id": "node/3283027820",
      "properties": {
        "name": "Modelo",
        "public_transport": "stop_position",
        "railway": "halt",
        "train": "yes",
        "id": "node/3283027820"
      },
      "geometry": {
        "type": "Point",
        "coordinates": [
          -82.2566322,
          23.0354541
        ]
      }
    },
    {
      "type": "Feature",
      "id": "node/3283027821",
      "properties": {
        "name": "La Pesa",
        "public_transport": "stop_position",
        "railway": "halt",
        "train": "yes",
        "id": "node/3283027821"
      },
      "geometry": {
        "type": "Point",
        "coordinates": [
          -82.2345228,
          23.0185622
        ]
      }
    },
    {
      "type": "Feature",
      "id": "node/3283027822",
      "properties": {
        "name": "Naranjito",
        "public_transport": "platform",
        "railway": "halt",
        "shelter": "yes",
        "train": "yes",
        "id": "node/3283027822"
      },
      "geometry": {
        "type": "Point",
        "coordinates": [
          -82.3796169,
          23.0800783
        ]
      }
    },
    {
      "type": "Feature",
      "id": "node/3283027823",
      "properties": {
        "name": "Parque Lenin",
        "public_transport": "platform",
        "railway": "halt",
        "train": "yes",
        "id": "node/3283027823"
      },
      "geometry": {
        "type": "Point",
        "coordinates": [
          -82.3693986,
          23.0287799
        ]
      }
    },
    {
      "type": "Feature",
      "id": "node/3283027824",
      "properties": {
        "name": "Piscinas",
        "public_transport": "stop_position",
        "railway": "stop",
        "train": "yes",
        "id": "node/3283027824"
      },
      "geometry": {
        "type": "Point",
        "coordinates": [
          -82.366004,
          23.0109179
        ]
      }
    },
    {
      "type": "Feature",
      "id": "node/3283028778",
      "properties": {
        "building": "yes",
        "name": "Rincón",
        "public_transport": "station",
        "railway": "station",
        "id": "node/3283028778"
      },
      "geometry": {
        "type": "Point",
        "coordinates": [
          -82.4148525,
          22.9522238
        ]
      }
    },
    {
      "type": "Feature",
      "id": "node/3283028779",
      "properties": {
        "name": "San Francisco de Paula",
        "public_transport": "stop_position",
        "railway": "halt",
        "train": "yes",
        "id": "node/3283028779"
      },
      "geometry": {
        "type": "Point",
        "coordinates": [
          -82.2993666,
          23.0640219
        ]
      }
    },
    {
      "type": "Feature",
      "id": "node/3283028782",
      "properties": {
        "bench": "yes",
        "name": "Vieja Linda",
        "public_transport": "platform",
        "railway": "halt",
        "shelter": "yes",
        "train": "yes",
        "id": "node/3283028782"
      },
      "geometry": {
        "type": "Point",
        "coordinates": [
          -82.3685399,
          23.0490612
        ]
      }
    },
    {
      "type": "Feature",
      "id": "node/3283097938",
      "properties": {
        "name": "Bacuranao",
        "public_transport": "stop_position",
        "railway": "halt",
        "train": "yes",
        "id": "node/3283097938"
      },
      "geometry": {
        "type": "Point",
        "coordinates": [
          -82.2388101,
          23.1456078
        ]
      }
    },
    {
      "type": "Feature",
      "id": "node/3284134075",
      "properties": {
        "name": "Abel Santamaría",
        "public_transport": "stop_position",
        "railway": "halt",
        "train": "yes",
        "id": "node/3284134075"
      },
      "geometry": {
        "type": "Point",
        "coordinates": [
          -82.4131031,
          23.0001801
        ]
      }
    },
    {
      "type": "Feature",
      "id": "node/3284134076",
      "properties": {
        "name": "Batabanó (San Manuel)",
        "public_transport": "stop_position",
        "railway": "halt",
        "train": "yes",
        "id": "node/3284134076"
      },
      "geometry": {
        "type": "Point",
        "coordinates": [
          -82.3019177,
          22.7228736
        ]
      }
    },
    {
      "type": "Feature",
      "id": "node/3284134077",
      "properties": {
        "name": "Dagame",
        "public_transport": "stop_position",
        "railway": "halt",
        "train": "yes",
        "id": "node/3284134077"
      },
      "geometry": {
        "type": "Point",
        "coordinates": [
          -82.6618963,
          22.7994251
        ]
      }
    },
    {
      "type": "Feature",
      "id": "node/3284134078",
      "properties": {
        "name": "El Gabriel",
        "public_transport": "stop_position",
        "railway": "halt",
        "train": "yes",
        "id": "node/3284134078"
      },
      "geometry": {
        "type": "Point",
        "coordinates": [
          -82.4613389,
          22.81447
        ]
      }
    },
    {
      "type": "Feature",
      "id": "node/3284134079",
      "properties": {
        "name": "Entronque CUJAE",
        "public_transport": "platform",
        "railway": "halt",
        "train": "yes",
        "id": "node/3284134079"
      },
      "geometry": {
        "type": "Point",
        "coordinates": [
          -82.4062913,
          23.0448004
        ]
      }
    },
    {
      "type": "Feature",
      "id": "node/3284134081",
      "properties": {
        "name": "La Salud",
        "public_transport": "stop_position",
        "railway": "station",
        "train": "yes",
        "id": "node/3284134081"
      },
      "geometry": {
        "type": "Point",
        "coordinates": [
          -82.4237027,
          22.8723869
        ]
      }
    },
    {
      "type": "Feature",
      "id": "node/3284134082",
      "properties": {
        "name": "Las Cañas",
        "public_transport": "stop_position",
        "railway": "halt",
        "train": "yes",
        "id": "node/3284134082"
      },
      "geometry": {
        "type": "Point",
        "coordinates": [
          -82.7093732,
          22.8047512
        ]
      }
    },
    {
      "type": "Feature",
      "id": "node/3284134083",
      "properties": {
        "bench": "yes",
        "name": "Mazorra",
        "public_transport": "platform",
        "railway": "halt",
        "shelter": "yes",
        "train": "yes",
        "id": "node/3284134083"
      },
      "geometry": {
        "type": "Point",
        "coordinates": [
          -82.4020007,
          23.0113322
        ]
      }
    },
    {
      "type": "Feature",
      "id": "node/3284134084",
      "properties": {
        "name": "Murgas",
        "public_transport": "platform",
        "railway": "halt",
        "train": "yes",
        "id": "node/3284134084"
      },
      "geometry": {
        "type": "Point",
        "coordinates": [
          -82.4389488,
          22.9880543
        ]
      }
    },
    {
      "type": "Feature",
      "id": "node/3284134110",
      "properties": {
        "name": "Quivicán",
        "public_transport": "stop_position",
        "railway": "station",
        "train": "yes",
        "id": "node/3284134110"
      },
      "geometry": {
        "type": "Point",
        "coordinates": [
          -82.3469925,
          22.8397491
        ]
      }
    },
    {
      "type": "Feature",
      "id": "node/3284134111",
      "properties": {
        "name": "Reloj Club",
        "public_transport": "platform",
        "railway": "halt",
        "train": "yes",
        "id": "node/3284134111"
      },
      "geometry": {
        "type": "Point",
        "coordinates": [
          -82.4027486,
          23.0602914
        ]
      }
    },
    {
      "type": "Feature",
      "id": "node/3284134112",
      "properties": {
        "bench": "yes",
        "name": "Wajay",
        "public_transport": "platform",
        "railway": "halt",
        "shelter": "yes",
        "train": "yes",
        "id": "node/3284134112"
      },
      "geometry": {
        "type": "Point",
        "coordinates": [
          -82.4231393,
          22.9981334
        ]
      }
    },
    {
      "type": "Feature",
      "id": "node/3284134113",
      "properties": {
        "name": "Almendares",
        "public_transport": "station",
        "railway": "station",
        "train": "yes",
        "id": "node/3284134113"
      },
      "geometry": {
        "type": "Point",
        "coordinates": [
          -82.399466,
          23.0746591
        ]
      }
    },
    {
      "type": "Feature",
      "id": "node/3293086438",
      "properties": {
        "name": "Ciudad Deportiva",
        "public_transport": "stop_position",
        "railway": "halt",
        "train": "yes",
        "id": "node/3293086438"
      },
      "geometry": {
        "type": "Point",
        "coordinates": [
          -82.3949378,
          23.1012797
        ]
      }
    },
    {
      "type": "Feature",
      "id": "node/3317166425",
      "properties": {
        "name": "Las Ovas",
        "public_transport": "stop_position",
        "railway": "station",
        "train": "yes",
        "id": "node/3317166425"
      },
      "geometry": {
        "type": "Point",
        "coordinates": [
          -83.5912472,
          22.428436
        ]
      }
    },
    {
      "type": "Feature",
      "id": "node/3348475106",
      "properties": {
        "name": "Cifuentes",
        "public_transport": "stop_position",
        "railway": "station",
        "train": "yes",
        "id": "node/3348475106"
      },
      "geometry": {
        "type": "Point",
        "coordinates": [
          -80.049208,
          22.6444251
        ]
      }
    },
    {
      "type": "Feature",
      "id": "node/3371341292",
      "properties": {
        "addr:city": "Piedrecitas",
        "addr:postcode": "74100",
        "addr:street": "Calle 18",
        "name": "Piedrecitas",
        "public_transport": "stop_position",
        "railway": "station",
        "train": "yes",
        "id": "node/3371341292"
      },
      "geometry": {
        "type": "Point",
        "coordinates": [
          -78.3221413,
          21.6089543
        ]
      }
    },
    {
      "type": "Feature",
      "id": "node/3389255698",
      "properties": {
        "name": "Las Tunas",
        "public_transport": "stop_position",
        "railway": "station",
        "train": "yes",
        "id": "node/3389255698"
      },
      "geometry": {
        "type": "Point",
        "coordinates": [
          -76.9466736,
          20.964968
        ]
      }
    },
    {
      "type": "Feature",
      "id": "node/3394185556",
      "properties": {
        "name": "Cromo",
        "public_transport": "stop_position",
        "railway": "halt",
        "train": "yes",
        "id": "node/3394185556"
      },
      "geometry": {
        "type": "Point",
        "coordinates": [
          -77.8101217,
          21.4326644
        ]
      }
    },
    {
      "type": "Feature",
      "id": "node/3394186210",
      "properties": {
        "landuse": "military",
        "military": "checkpoint",
        "name": "Punto de Control Norte",
        "public_transport": "stop_position",
        "railway": "halt",
        "id": "node/3394186210"
      },
      "geometry": {
        "type": "Point",
        "coordinates": [
          -77.8159646,
          21.4320507
        ]
      }
    },
    {
      "type": "Feature",
      "id": "node/3406659237",
      "properties": {
        "name": "Cuneira",
        "public_transport": "stop_position",
        "railway": "station",
        "train": "yes",
        "id": "node/3406659237"
      },
      "geometry": {
        "type": "Point",
        "coordinates": [
          -75.3588201,
          20.2267231
        ]
      }
    },
    {
      "type": "Feature",
      "id": "node/3412060617",
      "properties": {
        "name": "Palma Soriano",
        "public_transport": "stop_position",
        "railway": "station",
        "train": "yes",
        "id": "node/3412060617"
      },
      "geometry": {
        "type": "Point",
        "coordinates": [
          -75.9968438,
          20.2184573
        ]
      }
    },
    {
      "type": "Feature",
      "id": "node/3443327343",
      "properties": {
        "railway": "station",
        "id": "node/3443327343"
      },
      "geometry": {
        "type": "Point",
        "coordinates": [
          -76.4972343,
          20.7502603
        ]
      }
    },
    {
      "type": "Feature",
      "id": "node/3466018125",
      "properties": {
        "name": "Puerta de Golpe",
        "public_transport": "stop_position",
        "railway": "station",
        "train": "yes",
        "id": "node/3466018125"
      },
      "geometry": {
        "type": "Point",
        "coordinates": [
          -83.5455371,
          22.4522572
        ]
      }
    },
    {
      "type": "Feature",
      "id": "node/3520892896",
      "properties": {
        "name": "Estación de Ferrocarril de Vertientes",
        "public_transport": "stop_position",
        "railway": "station",
        "train": "yes",
        "id": "node/3520892896"
      },
      "geometry": {
        "type": "Point",
        "coordinates": [
          -78.1544964,
          21.2607538
        ]
      }
    },
    {
      "type": "Feature",
      "id": "node/3577219304",
      "properties": {
        "name": "CUJAE",
        "public_transport": "stop_position",
        "railway": "halt",
        "train": "yes",
        "id": "node/3577219304"
      },
      "geometry": {
        "type": "Point",
        "coordinates": [
          -82.4200132,
          23.0618442
        ]
      }
    },
    {
      "type": "Feature",
      "id": "node/3577591058",
      "properties": {
        "name": "Guanajay",
        "public_transport": "stop_position",
        "railway": "stop",
        "train": "yes",
        "id": "node/3577591058"
      },
      "geometry": {
        "type": "Point",
        "coordinates": [
          -82.6765643,
          22.9191171
        ]
      }
    },
    {
      "type": "Feature",
      "id": "node/3579174929",
      "properties": {
        "name": "Jaruco",
        "public_transport": "stop_position",
        "railway": "station",
        "train": "yes",
        "id": "node/3579174929"
      },
      "geometry": {
        "type": "Point",
        "coordinates": [
          -81.9998776,
          23.0366231
        ]
      }
    },
    {
      "type": "Feature",
      "id": "node/3586906575",
      "properties": {
        "name": "San Cristóbal",
        "public_transport": "stop_position",
        "railway": "station",
        "train": "yes",
        "id": "node/3586906575"
      },
      "geometry": {
        "type": "Point",
        "coordinates": [
          -83.0445654,
          22.7136352
        ]
      }
    },
    {
      "type": "Feature",
      "id": "node/3609544569",
      "properties": {
        "name": "Puerto Manatí",
        "public_transport": "stop_position",
        "railway": "station",
        "train": "yes",
        "id": "node/3609544569"
      },
      "geometry": {
        "type": "Point",
        "coordinates": [
          -76.8266645,
          21.3608975
        ]
      }
    },
    {
      "type": "Feature",
      "id": "node/3613713763",
      "properties": {
        "bus": "no",
        "name": "Caimito",
        "public_transport": "stop_position",
        "railway": "halt",
        "train": "yes",
        "id": "node/3613713763"
      },
      "geometry": {
        "type": "Point",
        "coordinates": [
          -82.5943922,
          22.9493773
        ]
      }
    },
    {
      "type": "Feature",
      "id": "node/3615673166",
      "properties": {
        "name": "Zulueta Sur",
        "public_transport": "stop_position",
        "railway": "station",
        "train": "yes",
        "id": "node/3615673166"
      },
      "geometry": {
        "type": "Point",
        "coordinates": [
          -79.5818937,
          22.341732
        ]
      }
    },
    {
      "type": "Feature",
      "id": "node/3657685445",
      "properties": {
        "name": "Santa Cruz del Sur",
        "public_transport": "stop_position",
        "railway": "station",
        "train": "yes",
        "id": "node/3657685445"
      },
      "geometry": {
        "type": "Point",
        "coordinates": [
          -78.001147,
          20.7211378
        ]
      }
    },
    {
      "type": "Feature",
      "id": "node/3692173323",
      "properties": {
        "name": "Guasimal",
        "public_transport": "stop_position",
        "railway": "station",
        "train": "yes",
        "id": "node/3692173323"
      },
      "geometry": {
        "type": "Point",
        "coordinates": [
          -79.4625834,
          21.7409596
        ]
      }
    },
    {
      "type": "Feature",
      "id": "node/3706008165",
      "properties": {
        "building": "yes",
        "name": "El Cano",
        "public_transport": "stop_position",
        "railway": "station",
        "train": "yes",
        "id": "node/3706008165"
      },