{
  "type": "FeatureCollection",
  "features": [
    {
      "type": "Feature",
      "id": "node/277014824",
      "properties": {
        "esr:user": "394602",
        "name": "Medveja",
        "name:ru": "Медвежа",
        "name:uk": "Медвежа",
        "railway": "halt",
        "uic_ref": "2300236",
        "id": "node/277014824"
      },
      "geometry": {
        "type": "Point",
        "coordinates": [
          26.7920584,
          48.3572858
        ]
      }
    },
    {
      "type": "Feature",
      "id": "node/286262877",
      "properties": {
        "name": "Pîrlița",
        "name:ru": "Пырлица",
        "railway": "station",
        "uic_ref": "2300583",
        "id": "node/286262877"
      },
      "geometry": {
        "type": "Point",
        "coordinates": [
          27.8923023,
          47.3227408
        ]
      }
    },
    {
      "type": "Feature",
      "id": "node/286263007",
      "properties": {
        "name": "Cornești",
        "name:ru": "Корнешты",
        "public_transport": "station",
        "railway": "station",
        "uic_ref": "2300584",
        "id": "node/286263007"
      },
      "geometry": {
        "type": "Point",
        "coordinates": [
          28.0025621,
          47.3628544
        ]
      }
    },
    {
      "type": "Feature",
      "id": "node/286263026",
      "properties": {
        "name": "Bahmut",
        "name:ru": "Бахмут",
        "operator": "CFM",
        "public_transport": "station",
        "railway": "station",
        "uic_ref": "2300585",
        "wikidata": "Q4079869",
        "wikipedia": "ru:Бахмут (станция, Молдавия)",
        "id": "node/286263026"
      },
      "geometry": {
        "type": "Point",
        "coordinates": [
          28.0837794,
          47.3292113
        ]
      }
    },
    {
      "type": "Feature",
      "id": "node/286263226",
      "properties": {
        "name": "Călărași",
        "name:ru": "Калараш",
        "operator": "CFM",
        "public_transport": "station",
        "railway": "station",
        "uic_ref": "2300587",
        "wikidata": "Q83646171",
        "id": "node/286263226"
      },
      "geometry": {
        "type": "Point",
        "coordinates": [
          28.334624,
          47.2443178
        ]
      }
    },
    {
      "type": "Feature",
      "id": "node/286263386",
      "properties": {
        "name": "Pruncul",
        "name:ru": "Прункул",
        "railway": "halt",
        "uic_ref": "2301574",
        "id": "node/286263386"
      },
      "geometry": {
        "type": "Point",
        "coordinates": [
          28.776145,
          47.0643355
        ]
      }
    },
    {
      "type": "Feature",
      "id": "node/286263431",
      "properties": {
        "name": "Visterniceni",
        "name:ro": "Visterniceni",
        "name:ru": "Вистерничены",
        "operator": "Calea ferată din Moldova",
        "public_transport": "station",
        "railway": "station",
        "uic_ref": "2301550",
        "id": "node/286263431"
      },
      "geometry": {
        "type": "Point",
        "coordinates": [
          28.8418115,
          47.0405554
        ]
      }
    },
    {
      "type": "Feature",
      "id": "node/288986117",
      "properties": {
        "esr:user": "394104",
        "name": "Ocnița",
        "name:pl": "Oknica",
        "name:ru": "Окница",
        "name:uk": "Окниця",
        "network": "CFM",
        "operator": "Calea Feratą din Moldova(CFM)",
        "public_transport": "station",
        "railway": "station",
        "uic_ref": "2300551",
        "wikidata": "Q19706103",
        "id": "node/288986117"
      },
      "geometry": {
        "type": "Point",
        "coordinates": [
          27.4849108,
          48.405418
        ]
      }
    },
    {
      "type": "Feature",
      "id": "node/289897536",
      "properties": {
        "internet_access": "wlan",
        "name": "Ungheni",
        "name:ru": "Унгены",
        "operator": "Calea Ferată din Moldova (CFM)",
        "public_transport": "station",
        "railway": "station",
        "train": "yes",
        "uic_ref": "2300145",
        "wikidata": "Q20429826",
        "id": "node/289897536"
      },
      "geometry": {
        "type": "Point",
        "coordinates": [
          27.7998692,
          47.2034975
        ]
      }
    },
    {
      "type": "Feature",
      "id": "node/324607888",
      "properties": {
        "addr:city": "Dondușeni",
        "esr:user": "393807",
        "name": "Dondușeni",
        "name:ru": "Дондюшаны",
        "public_transport": "station",
        "railway": "station",
        "uic_ref": "2300554",
        "wikidata": "Q56367089",
        "id": "node/324607888"
      },
      "geometry": {
        "type": "Point",
        "coordinates": [
          27.6090995,
          48.2354049
        ]
      }
    },
    {
      "type": "Feature",
      "id": "node/324607995",
      "properties": {
        "esr:user": "393629",
        "name": "124 Km",
        "railway": "halt",
        "id": "node/324607995"
      },
      "geometry": {
        "type": "Point",
        "coordinates": [
          27.7645513,
          48.0722071
        ]
      }
    },
    {
      "type": "Feature",
      "id": "node/331849033",
      "properties": {
        "esr:user": "393506",
        "name": "Sofia",
        "name:ru": "София",
        "network": "CFM",
        "operator": "CFM",
        "platforms": "2",
        "public_transport": "station",
        "railway": "station",
        "uic_ref": "2300558",
        "wikidata": "Q91332048",
        "id": "node/331849033"
      },
      "geometry": {
        "type": "Point",
        "coordinates": [
          27.8368274,
          47.9544933
        ]
      }
    },
    {
      "type": "Feature",
      "id": "node/333165842",
      "properties": {
        "esr:user": "399023",
        "name": "111 Km",
        "name:ru": "Разъезд 111 км",
        "operator": "Calea Ferată din Moldova",
        "public_transport": "station",
        "railway": "station",
        "id": "node/333165842"
      },
      "geometry": {
        "type": "Point",
        "coordinates": [
          28.9560355,
          46.4645423
        ]
      }
    },
    {
      "type": "Feature",
      "id": "node/333196840",
      "properties": {
        "esr:user": "398707",
        "name": "Taraclia",
        "name:bg": "Тараклия",
        "name:gag": "Taraklı",
        "name:gag-cyr": "Тараклы",
        "name:lt": "Taraklija",
        "name:ru": "Тараклия",
        "name:uk": "Тараклія",
        "operator": "Calea Ferată din Moldova",
        "public_transport": "station",
        "railway": "station",
        "train": "yes",
        "uic_ref": "2300616",
        "wikidata": "Q91344439",
        "id": "node/333196840"
      },
      "geometry": {
        "type": "Point",
        "coordinates": [
          28.6501249,
          45.9248343
        ]
      }
    },
    {
      "type": "Feature",
      "id": "node/347982709",
      "properties": {
        "esr:user": "392734",
        "name": "Scumpia",
        "name:ru": "Скумпия",
        "railway": "halt",
        "uic_ref": "2301587",
        "id": "node/347982709"
      },
      "geometry": {
        "type": "Point",
        "coordinates": [
          27.7474009,
          47.4623405
        ]
      }
    },
    {
      "type": "Feature",
      "id": "node/347984717",
      "properties": {
        "esr:user": "392043",
        "name": "Medeleni",
        "name:ru": "Меделены",
        "railway": "halt",
        "uic_ref": "2301560",
        "id": "node/347984717"
      },
      "geometry": {
        "type": "Point",
        "coordinates": [
          27.7182782,
          47.309522
        ]
      }
    },
    {
      "type": "Feature",
      "id": "node/369390478",
      "properties": {
        "esr:user": "391939",
        "name": "1646 Km",
        "railway": "halt",
        "uic_ref": "2300016",
        "id": "node/369390478"
      },
      "geometry": {
        "type": "Point",
        "coordinates": [
          27.8731355,
          47.3107198
        ]
      }
    },
    {
      "type": "Feature",
      "id": "node/384898266",
      "properties": {
        "esr:user": "397244",
        "name": "Dezghingea",
        "name:gag": "Dezgincä, Дезгинҗә",
        "name:ru": "Дезгинжа",
        "railway": "halt",
        "uic_ref": "2300596",
        "id": "node/384898266"
      },
      "geometry": {
        "type": "Point",
        "coordinates": [
          28.6079853,
          46.4197258
        ]
      }
    },
    {
      "type": "Feature",
      "id": "node/394773843",
      "properties": {
        "esr:user": "392721",
        "name": "Stolniceni",
        "name:ru": "Стольничены",
        "operator": "CFM",
        "public_transport": "station",
        "railway": "station",
        "uic_ref": "2300498",
        "id": "node/394773843"
      },
      "geometry": {
        "type": "Point",
        "coordinates": [
          27.7177083,
          47.4143499
        ]
      }
    },
    {
      "type": "Feature",
      "id": "node/415964911",
      "properties": {
        "addr:city": "Chișinău",
        "name": "Chișinău",
        "name:af": "Chișinău",
        "name:als": "Kischinau",
        "name:am": "ኪሺንው",
        "name:ar": "كيشيناو",
        "name:ast": "Quixináu",
        "name:bg": "Кишинев",
        "name:de": "Kischinau",
        "name:hu": "KisJenő",
        "name:pl": "Kiszyniów",
        "name:ro": "Chișinău",
        "name:ru": "Кишинёв",
        "operator": "Calea Ferată din Moldova",
        "public_transport": "station",
        "railway": "station",
        "train": "yes",
        "uic_ref": "2300000",
        "id": "node/415964911"
      },
      "geometry": {
        "type": "Point",
        "coordinates": [
          28.8602002,
          47.013054
        ]
      }
    },
    {
      "type": "Feature",
      "id": "node/418165050",
      "properties": {
        "esr:user": "392039",
        "name": "Petrești",
        "name:ru": "Петрешты",
        "public_transport": "station",
        "railway": "station",
        "uic_ref": "2300582",
        "id": "node/418165050"
      },
      "geometry": {
        "type": "Point",
        "coordinates": [
          27.7450396,
          47.2878096
        ]
      }
    },
    {
      "type": "Feature",
      "id": "node/419037400",
      "properties": {
        "esr:user": "392715",
        "name": "Cioropcanii Noi",
        "name:ru": "Новые Чоропканы",
        "railway": "halt",
        "uic_ref": "2301558",
        "id": "node/419037400"
      },
      "geometry": {
        "type": "Point",
        "coordinates": [
          27.7011353,
          47.3920561
        ]
      }
    },
    {
      "type": "Feature",
      "id": "node/419061906",
      "properties": {
        "esr:user": "392058",
        "name": "Buciumeni",
        "name:ru": "Бучумень",
        "railway": "halt",
        "uic_ref": "2300581",
        "id": "node/419061906"
      },
      "geometry": {
        "type": "Point",
        "coordinates": [
          27.6955652,
          47.3476315
        ]
      }
    },
    {
      "type": "Feature",
      "id": "node/490607682",
      "properties": {
        "name": "Cahul",
        "name:ru": "Кагул",
        "operator": "CFM",
        "public_transport": "station",
        "railway": "station",
        "train": "yes",
        "uic_ref": "2301588",
        "id": "node/490607682"
      },
      "geometry": {
        "type": "Point",
        "coordinates": [
          28.1928887,
          45.9225188
        ]
      }
    },
    {
      "type": "Feature",
      "id": "node/493346024",
      "properties": {
        "esr:user": "394301",
        "name": "Vălcineț",
        "name:ru": "Вэлчинец",
        "operator": "CFM",
        "public_transport": "station",
        "railway": "station",
        "train": "yes",
        "uic_ref": "2300547",
        "wikidata": "Q83373519",
        "id": "node/493346024"
      },
      "geometry": {
        "type": "Point",
        "coordinates": [
          27.7361088,
          48.4505221
        ]
      }
    },
    {
      "type": "Feature",
      "id": "node/512633947",
      "properties": {
        "name": "Cuporani",
        "name:ru": "Купораны",
        "railway": "halt",
        "id": "node/512633947"
      },
      "geometry": {
        "type": "Point",
        "coordinates": [
          28.356179,
          46.3727642
        ]
      }
    },
    {
      "type": "Feature",
      "id": "node/512633979",
      "properties": {
        "name": "72 Km",
        "name:ru:word_stress": "72 км",
        "railway": "halt",
        "id": "node/512633979"
      },
      "geometry": {
        "type": "Point",
        "coordinates": [
          28.3824899,
          46.3928461
        ]
      }
    },
    {
      "type": "Feature",
      "id": "node/595773111",
      "properties": {
        "addr:city": "Fălești",
        "esr:user": "392804",
        "int_name": "Fălești",
        "name": "Fălești",
        "name:ru": "Фалешты",
        "operator": "CFM",
        "public_transport": "station",
        "railway": "station",
        "uic_ref": "2300578",
        "id": "node/595773111"
      },
      "geometry": {
        "type": "Point",
        "coordinates": [
          27.740621,
          47.5490143
        ]
      }
    },
    {
      "type": "Feature",
      "id": "node/600484145",
      "properties": {
        "esr:user": "396203",
        "name": "Lipceni",
        "name:ru": "Липчены",
        "railway": "halt",
        "uic_ref": "2300563",
        "id": "node/600484145"
      },
      "geometry": {
        "type": "Point",
        "coordinates": [
          28.8845348,
          47.8119282
        ]
      }
    },
    {
      "type": "Feature",
      "id": "node/604245239",
      "properties": {
        "alt_name": "Bender-III",
        "esr:user": "390673",
        "name": "Bender-3",
        "name:md": "Бендер-3",
        "name:ro": "Bender-3",
        "name:ru": "Бендеры-3",
        "name:uk": "Бендери-.",
        "operator": "Calea ferată din Moldova",
        "railway": "halt",
        "wikidata": "Q4083706",
        "wikipedia": "ru:Бендер III",
        "id": "node/604245239"
      },
      "geometry": {
        "type": "Point",
        "coordinates": [
          29.4725719,
          46.8505531
        ]
      }
    },
    {
      "type": "Feature",
      "id": "node/614164951",
      "properties": {
        "esr:user": "391515",
        "name": "Pănășești",
        "name:ru": "Панашешты",
        "railway": "halt",
        "uic_ref": "2301570",
        "id": "node/614164951"
      },
      "geometry": {
        "type": "Point",
        "coordinates": [
          28.5276405,
          47.1690431
        ]
      }
    },
    {
      "type": "Feature",
      "id": "node/616319384",
      "properties": {
        "esr:user": "391820",
        "name": "Bumbăta",
        "name:ru": "Бумбэта",
        "railway": "halt",
        "uic_ref": "2301567",
        "id": "node/616319384"
      },
      "geometry": {
        "type": "Point",
        "coordinates": [
          27.9683575,
          47.3299423
        ]
      }
    },
    {
      "type": "Feature",
      "id": "node/629111117",
      "properties": {
        "esr:user": "392819",
        "name": "51 Km",
        "railway": "halt",
        "id": "node/629111117"
      },
      "geometry": {
        "type": "Point",
        "coordinates": [
          27.7622974,
          47.5875256
        ]
      }
    },
    {
      "type": "Feature",
      "id": "node/629119581",
      "properties": {
        "esr:user": "392912",
        "name": "Hiliuți",
        "name:ru": "Хилиуцы",
        "operator": "CFM",
        "railway": "station",
        "uic_ref": "2300576",
        "id": "node/629119581"
      },
      "geometry": {
        "type": "Point",
        "coordinates": [
          27.7497767,
          47.6786909
        ]
      }
    },
    {
      "type": "Feature",
      "id": "node/629120141",
      "properties": {
        "esr:user": "392927",
        "name": "Sovhoz",
        "name:ru": "Совхоз",
        "railway": "halt",
        "uic_ref": "2301551",
        "id": "node/629120141"
      },
      "geometry": {
        "type": "Point",
        "coordinates": [
          27.7456086,
          47.6976474
        ]
      }
    },
    {
      "type": "Feature",
      "id": "node/635769926",
      "properties": {
        "name": "Alexăndreni",
        "name:ru": "Александрены",
        "operator": "CFM",
        "public_transport": "station",
        "railway": "station",
        "id": "node/635769926"
      },
      "geometry": {
        "type": "Point",
        "coordinates": [
          28.0652581,
          47.8073485
        ]
      }
    },
    {
      "type": "Feature",
      "id": "node/635869586",
      "properties": {
        "esr:user": "395412",
        "name": "Putinești",
        "name:ru": "Путинешты",
        "railway": "halt",
        "uic_ref": "2301592",
        "id": "node/635869586"
      },
      "geometry": {
        "type": "Point",
        "coordinates": [
          28.1230179,
          47.8388631
        ]
      }
    },
    {
      "type": "Feature",
      "id": "node/635869906",
      "properties": {
        "alt_name:ru": "Устье Кайнара",
        "esr:user": "395427",
        "name": "Gura Căinarului",
        "name:ru": "Гура Кэйнарулуй",
        "railway": "halt",
        "uic_ref": "2300525",
        "id": "node/635869906"
      },
      "geometry": {
        "type": "Point",
        "coordinates": [
          28.1852217,
          47.8596121
        ]
      }
    },
    {
      "type": "Feature",
      "id": "node/636902885",
      "properties": {
        "name": "Florești",
        "name:ru": "Флорешть",
        "public_transport": "station",
        "railway": "station",
        "train": "yes",
        "uic_ref": "2300466",
        "id": "node/636902885"
      },
      "geometry": {
        "type": "Point",
        "coordinates": [
          28.3073422,
          47.8854552
        ]
      }
    },
    {
      "type": "Feature",
      "id": "node/637022518",
      "properties": {
        "alt_name:ru": "Устье Каменки",
        "esr:user": "395613",
        "name": "Gura Camencii",
        "name:ru": "Гура Каменчий",
        "railway": "halt",
        "uic_ref": "2301593",
        "id": "node/637022518"
      },
      "geometry": {
        "type": "Point",
        "coordinates": [
          28.348934,
          47.8910554
        ]
      }
    },
    {
      "type": "Feature",
      "id": "node/637025382",
      "properties": {
        "name": "Ghindești",
        "name:ru": "Гиндешты",
        "public_transport": "station",
        "railway": "station",
        "uic_ref": "2300569",
        "id": "node/637025382"
      },
      "geometry": {
        "type": "Point",
        "coordinates": [
          28.376454,
          47.8613236
        ]
      }
    },
    {
      "type": "Feature",
      "id": "node/650729154",
      "properties": {
        "esr:user": "391500",
        "name": "Strășeni",
        "name:ru": "Страшены",
        "operator": "CFM",
        "public_transport": "station",
        "railway": "station",
        "train": "yes",
        "uic_ref": "2300589",
        "id": "node/650729154"
      },
      "geometry": {
        "type": "Point",
        "coordinates": [
          28.6200305,
          47.1499755
        ]
      }
    },
    {
      "type": "Feature",
      "id": "node/665874972",
      "properties": {
        "description": "Строго говоря, это не Блок-пост, а Путевой пост.",
        "esr:user": "394903",
        "name": "B.P. 61 Km",
        "name:ru": "Пост 61 км",
        "railway": "halt",
        "id": "node/665874972"
      },
      "geometry": {
        "type": "Point",
        "coordinates": [
          26.6391998,
          48.2663409
        ]
      }
    },
    {
      "type": "Feature",
      "id": "node/665875209",
      "properties": {
        "description": "Fosta stație.",
        "description:ru": "Бывшая станция (разъезд)",
        "esr:user": "394424",
        "name": "68 Km",
        "railway": "halt",
        "id": "node/665875209"
      },
      "geometry": {
        "type": "Point",
        "coordinates": [
          26.7349188,
          48.2755526
        ]
      }
    },
    {
      "type": "Feature",
      "id": "node/691014269",
      "properties": {
        "esr:user": "393608",
        "name": "Drochia",
        "name:ru": "Дрокия",
        "network": "CFM",
        "operator": "CFM",
        "public_transport": "station",
        "railway": "station",
        "uic_ref": "2300557",
        "wikidata": "Q56367086",
        "id": "node/691014269"
      },
      "geometry": {
        "type": "Point",
        "coordinates": [
          27.8098753,
          48.0308608
        ]
      }
    },
    {
      "type": "Feature",
      "id": "node/691014276",
      "properties": {
        "esr:user": "393900",
        "name": "Rediul Mare",
        "name:ru": "Редю Маре",
        "network": "CFM",
        "operator": "CFM",
        "public_transport": "station",
        "railway": "station",
        "uic_ref": "2300553",
        "id": "node/691014276"
      },
      "geometry": {
        "type": "Point",
        "coordinates": [
          27.4925896,
          48.2692036
        ]
      }
    },
    {
      "type": "Feature",
      "id": "node/769204933",
      "properties": {
        "esr:user": "390616",
        "name": "Satul Calfa",
        "name:ru": "Село Калфа",
        "railway": "halt",
        "uic_ref": "2301599",
        "id": "node/769204933"
      },
      "geometry": {
        "type": "Point",
        "coordinates": [
          29.3858862,
          46.9055928
        ]
      }
    },
    {
      "type": "Feature",
      "id": "node/769870049",
      "properties": {
        "esr:user": "390635",
        "name": "Roșcani",
        "name:ru": "Рошканы",
        "railway": "halt",
        "uic_ref": "2301555",
        "id": "node/769870049"
      },
      "geometry": {
        "type": "Point",
        "coordinates": [
          29.3320048,
          46.8980112
        ]
      }
    },
    {
      "type": "Feature",
      "id": "node/836083540",
      "properties": {
        "name": "Basarabeasca",
        "name:ru": "Бессарабская",
        "name:uk": "Бесарабська",
        "operator": "Calea Ferată din Moldova",
        "public_transport": "station",
        "railway": "station",
        "train": "yes",
        "uic_ref": "2300611",
        "wikidata": "Q19706096",
        "wikipedia": "ro:Gara Basarabeasca",
        "id": "node/836083540"
      },
      "geometry": {
        "type": "Point",
        "coordinates": [
          28.9839414,
          46.3272086
        ]
      }
    },
    {
      "type": "Feature",
      "id": "node/944524717",
      "properties": {
        "esr:user": "390902",
        "name": "Mereni",
        "name:ru": "Мерены",
        "operator": "Calea ferată din Moldova",
        "public_transport": "station",
        "railway": "station",
        "uic_ref": "2300593",
        "id": "node/944524717"
      },
      "geometry": {
        "type": "Point",
        "coordinates": [
          29.0573417,
          46.9224661
        ]
      }
    },
    {
      "type": "Feature",
      "id": "node/1007241183",
      "properties": {
        "name": "Zloți",
        "operator": "CFM",
        "public_transport": "station",
        "railway": "station",
        "id": "node/1007241183"
      },
      "geometry": {
        "type": "Point",
        "coordinates": [
          28.8962132,
          46.6955276
        ]
      }
    },
    {
      "type": "Feature",
      "id": "node/1017799865",
      "properties": {
        "esr:user": "390001",
        "name": "Бендеры-1",
        "name:md": "Бендер-1",
        "name:ro": "Bender-1",
        "name:ru": "Бендеры-1",
        "name:uk": "Бендери-1",
        "operator": "Приднестровская железная дорога",
        "public_transport": "station",
        "railway": "station",
        "uic_ref": "2300590",
        "wikidata": "Q4083704",
        "wikipedia": "ru:Бендеры-1",
        "id": "node/1017799865"
      },
      "geometry": {
        "type": "Point",
        "coordinates": [
          29.4714132,
          46.8271414
        ]
      }
    },
    {
      "type": "Feature",
      "id": "node/1048713389",
      "properties": {
        "name": "Chișinău-3 (S.T.V.C. - direcția Chișinău)",
        "name:en": "Chișinău-3 (S.T.V.C. - direction Chișinău)",
        "name:mo": "Chișinău-3 (S.T.V.C. - direcția Chișinău)",
        "name:ro": "Chișinău-3 (S.T.V.C. - direcția Chișinău)",
        "name:ru": "Кишинёв-3 (S.T.V.C. - направление Кишинёв)",
        "railway": "halt",
        "id": "node/1048713389"
      },
      "geometry": {
        "type": "Point",
        "coordinates": [
          28.90943,
          46.9794952
        ]
      }
    },
    {
      "type": "Feature",
      "id": "node/1093767315",
      "properties": {
        "name": "Zaim",
        "name:ru": "Заим",
        "operator": "CFM",
        "railway": "station",
        "id": "node/1093767315"
      },
      "geometry": {
        "type": "Point",
        "coordinates": [
          29.3183373,
          46.6110555
        ]
      }
    },
    {
      "type": "Feature",
      "id": "node/1196720448",
      "properties": {
        "esr:user": "398800",
        "name": "Ciadîr-Lunga",
        "name:gag": "Çadır-Lunga",
        "name:ru": "Чадыр-Лунга",
        "operator": "CFM",
        "public_transport": "station",
        "railway": "station",
        "train": "yes",
        "uic_ref": "2300614",
        "wikidata": "Q91345094",
        "id": "node/1196720448"
      },
      "geometry": {
        "type": "Point",
        "coordinates": [
          28.8374349,
          46.0758639
        ]
      }
    },
    {
      "type": "Feature",
      "id": "node/1204059427",
      "properties": {
        "name": "Chirhanii Vechi",
        "name:ru": "Старые Кирханы",
        "railway": "halt",
        "id": "node/1204059427"
      },
      "geometry": {
        "type": "Point",
        "coordinates": [
          28.187798,
          45.851491
        ]
      }
    },
    {
      "type": "Feature",
      "id": "node/1209422611",
      "properties": {
        "esr:user": "390813",
        "name": "Jemciug",
        "name:ru": "Жемчуг",
        "railway": "halt",
        "uic_ref": "2301563",
        "id": "node/1209422611"
      },
      "geometry": {
        "type": "Point",
        "coordinates": [
          29.1475739,
          46.9107298
        ]
      }
    },
    {
      "type": "Feature",
      "id": "node/1210715014",
      "properties": {
        "name": "174 Km",
        "name:ru": "174 км",
        "railway": "halt",
        "id": "node/1210715014"
      },
      "geometry": {
        "type": "Point",
        "coordinates": [
          28.829225,
          46.0543408
        ]
      }
    },
    {
      "type": "Feature",
      "id": "node/1210715124",
      "properties": {
        "esr:user": "398904",
        "name": "Abaclia",
        "name:ru": "Абаклия",
        "operator": "Calea Ferată din Moldova",
        "public_transport": "station",
        "railway": "station",
        "train": "yes",
        "uic_ref": "2300580",
        "id": "node/1210715124"
      },
      "geometry": {
        "type": "Point",
        "coordinates": [
          28.8987845,
          46.3592045
        ]
      }
    },
    {
      "type": "Feature",
      "id": "node/1229824152",
      "properties": {
        "name": "Ghidighici",
        "name:ru": "Гидигич",
        "operator": "CFM",
        "public_transport": "station",
        "railway": "station",
        "uic_ref": "2300591",
        "id": "node/1229824152"
      },
      "geometry": {
        "type": "Point",
        "coordinates": [
          28.7535937,
          47.0729278
        ]
      }
    },
    {
      "type": "Feature",
      "id": "node/1239817376",
      "properties": {
        "name": "6 Km",
        "name:ru": "6 км",
        "railway": "halt",
        "id": "node/1239817376"
      },
      "geometry": {
        "type": "Point",
        "coordinates": [
          28.862527,
          46.3709748
        ]
      }
    },
    {
      "type": "Feature",
      "id": "node/1255157563",
      "properties": {
        "alt_name": "Bălți Pământeni",
        "name": "Bălți Oraș",
        "name:ru": "Бельцы-Город",
        "old_name": "Bălți Pământeni",
        "operator": "Întreprinderea de Stat „Calea Ferată din Moldova”",
        "platforms": "2",
        "public_transport": "station",
        "railway": "station",
        "ref": "Bălți Oraș",
        "uic_ref": "2300574",
        "wikidata": "Q12728806",
        "wikipedia": "ro:Gara Bălți-Oraș",
        "id": "node/1255157563"
      },
      "geometry": {
        "type": "Point",
        "coordinates": [
          27.9100091,
          47.7610757
        ]
      }
    },
    {
      "type": "Feature",
      "id": "node/1267411668",
      "properties": {
        "name": "Țîra",
        "name:ru": "Цыра",
        "operator": "CFM",
        "public_transport": "station",
        "railway": "station",
        "uic_ref": "2300568",
        "id": "node/1267411668"
      },
      "geometry": {
        "type": "Point",
        "coordinates": [
          28.4394768,
          47.8609672
        ]
      }
    },
    {
      "type": "Feature",
      "id": "node/1294360715",
      "properties": {
        "esr:user": "399108",
        "name": "Cimișlia",
        "name:ru": "Чимишлия",
        "operator": "CFM",
        "public_transport": "station",
        "railway": "station",
        "uic_ref": "2300608",
        "id": "node/1294360715"
      },
      "geometry": {
        "type": "Point",
        "coordinates": [
          28.9273661,
          46.5366797
        ]
      }
    },
    {
      "type": "Feature",
      "id": "node/1296216283",
      "properties": {
        "name": "89 Km",
        "name:ru": "89 км",
        "railway": "halt",
        "id": "node/1296216283"
      },
      "geometry": {
        "type": "Point",
        "coordinates": [
          28.9132578,
          46.6577534
        ]
      }
    },
    {
      "type": "Feature",
      "id": "node/1303002081",
      "properties": {
        "esr:user": "390705",
        "int_name": "Bulboaca",
        "name": "Bulboaca",
        "name:en": "Bulboaca",
        "name:fr": "Bulboaca",
        "name:ru": "Бульбока",
        "operator": "Calea ferată din Moldova",
        "public_transport": "station",
        "railway": "station",
        "uic_ref": "2300595",
        "id": "node/1303002081"
      },
      "geometry": {
        "type": "Point",
        "coordinates": [
          29.2903288,
          46.8892594
        ]
      }
    },
    {
      "type": "Feature",
      "id": "node/1333953010",
      "properties": {
        "name": "Cărbuna",
        "name:ru": "Карбуна",
        "railway": "halt",
        "uic_ref": "2301579",
        "id": "node/1333953010"
      },
      "geometry": {
        "type": "Point",
        "coordinates": [
          28.9630917,
          46.7275844
        ]
      }
    },
    {
      "type": "Feature",
      "id": "node/1374889431",
      "properties": {
        "esr:user": "399413",
        "name": "Gangura",
        "name:ru": "Гангура",
        "railway": "halt",
        "id": "node/1374889431"
      },
      "geometry": {
        "type": "Point",
        "coordinates": [
          29.0291815,
          46.7343204
        ]
      }
    },
    {
      "type": "Feature",
      "id": "node/1378795171",
      "properties": {
        "esr:user": "392607",
        "name": "Criva",
        "name:pl": "Kriwa",
        "name:ru": "Крива",
        "operator": "CFM",
        "public_transport": "station",
        "railway": "station",
        "uic_ref": "2300021",
        "wikidata": "Q86083415",
        "id": "node/1378795171"
      },
      "geometry": {
        "type": "Point",
        "coordinates": [
          26.6735423,
          48.2693268
        ]
      }
    },
    {
      "type": "Feature",
      "id": "node/1428977621",
      "properties": {
        "name": "Coșernița",
        "name:ru": "Кошерница",
        "railway": "halt",
        "uic_ref": "2301594",
        "id": "node/1428977621"
      },
      "geometry": {
        "type": "Point",
        "coordinates": [
          28.4545606,
          47.8773281
        ]
      }
    },
    {
      "type": "Feature",
      "id": "node/1436455683",
      "properties": {
        "addr:city": "Bălți",
        "name": "Bălți-Slobozia",
        "name:ru": "Бельцы-Слободзея",
        "operator": "CFM",
        "platforms": "2",
        "public_transport": "station",
        "railway": "station",
        "uic_ref": "2300077",
        "wikidata": "Q2425970",
        "wikipedia": "ro:Gara Bălți-Slobozia",
        "id": "node/1436455683"
      },
      "geometry": {
        "type": "Point",
        "coordinates": [
          27.9259845,
          47.7861097
        ]
      }
    },
    {
      "type": "Feature",
      "id": "node/1756633777",
      "properties": {
        "name": "Cîșlița-Prut",
        "name:ru": "Кышлица-Прут",
        "railway": "halt",
        "id": "node/1756633777"
      },
      "geometry": {
        "type": "Point",
        "coordinates": [
          28.1653773,
          45.5349312
        ]
      }
    },
    {
      "type": "Feature",
      "id": "node/1770683290",
      "properties": {
        "name": "Căinari",
        "name:ru": "Каинары",
        "operator": "CFM",
        "public_transport": "station",
        "railway": "station",
        "uic_ref": "2300605",
        "id": "node/1770683290"
      },
      "geometry": {
        "type": "Point",
        "coordinates": [
          29.0956785,
          46.6757904
        ]
      }
    },
    {
      "type": "Feature",
      "id": "node/1774020188",
      "properties": {
        "name": "Colibași",
        "name:ru": "Колибаш",
        "operator": "CFM",
        "public_transport": "station",
        "railway": "station",
        "train": "yes",
        "id": "node/1774020188"
      },
      "geometry": {
        "type": "Point",
        "coordinates": [
          28.1719061,
          45.7190842
        ]
      }
    },
    {
      "type": "Feature",
      "id": "node/1852677204",
      "properties": {
        "esr:user": "398834",
        "name": "Joltai",
        "name:gag": "Coltay",
        "name:gag-cyr": "Ӂолтай",
        "name:ru": "Джолтай",
        "railway": "halt",
        "uic_ref": "2301556",
        "id": "node/1852677204"
      },
      "geometry": {
        "type": "Point",
        "coordinates": [
          28.9023166,
          46.1656455
        ]
      }
    },
    {
      "type": "Feature",
      "id": "node/1852772684",
      "properties": {
        "description": "Бывшая станция (разъезд).",
        "esr:user": "398711",
        "name": "Cazaclia",
        "name:gag": "Kazayak",
        "name:ru": "Казаклия",
        "railway": "halt",
        "uic_ref": "2300110",
        "id": "node/1852772684"
      },
      "geometry": {
        "type": "Point",
        "coordinates": [
          28.6800473,
          45.977157
        ]
      }
    },
    {
      "type": "Feature",
      "id": "node/1885885316",
      "properties": {
        "name": "Komrat",
        "name:en": "Comrat",
        "name:gag": "Komrat",
        "name:ru": "Комрат",
        "operator": "CFM",
        "public_transport": "station",
        "railway": "station",
        "uic_ref": "2300592",
        "id": "node/1885885316"
      },
      "geometry": {
        "type": "Point",
        "coordinates": [
          28.6601595,
          46.362691
        ]
      }
    },
    {
      "type": "Feature",
      "id": "node/1892296903",
      "properties": {
        "name": "Brînza",
        "name:ru": "Брынза",
        "railway": "halt",
        "id": "node/1892296903"
      },
      "geometry": {
        "type": "Point",
        "coordinates": [
          28.1712104,
          45.6770038
        ]
      }
    },
    {
      "type": "Feature",
      "id": "node/2291460563",
      "properties": {
        "name": "Lipcani",
        "name:pl": "Lipkany",
        "name:ru": "Липканы",
        "name:uk": "Липкани",
        "public_transport": "station",
        "railway": "station",
        "uic_ref": "2300035",
        "wikidata": "Q83281123",
        "id": "node/2291460563"
      },
      "geometry": {
        "type": "Point",
        "coordinates": [
          26.7859993,
          48.2902515
        ]
      }
    },
    {
      "type": "Feature",
      "id": "node/2291468592",
      "properties": {
        "description:ru": "Бывшая станция (разъезд).",
        "name": "Verejeni",
        "name:ru": "Вережаны",
        "railway": "halt",
        "uic_ref": "2300106",
        "id": "node/2291468592"
      },
      "geometry": {
        "type": "Point",
        "coordinates": [
          27.6353961,
          48.4410391
        ]
      }
    },
    {
      "type": "Feature",
      "id": "node/2291472492",
      "properties": {
        "name": "Gîrbova",
        "name:ru": "Гырбово",
        "network": "Calea Ferată din Moldova (CFM)",
        "operator": "Sediul Î.S. \"Calea Ferată din Moldova\" (CFM)",
        "public_transport": "station",
        "railway": "station",
        "train": "yes",
        "uic_ref": "2301581",
        "wikidata": "Q91624421",
        "id": "node/2291472492"
      },
      "geometry": {
        "type": "Point",
        "coordinates": [
          27.5983978,
          48.4122024
        ]
      }
    },
    {
      "type": "Feature",
      "id": "node/2291476836",
      "properties": {
        "name": "Grinăuți",
        "name:ru": "Гринауцы",
        "network": "CFM",
        "operator": "CFM",
        "public_transport": "station",
        "railway": "station",
        "train": "yes",
        "uic_ref": "2300535",
        "id": "node/2291476836"
      },
      "geometry": {
        "type": "Point",
        "coordinates": [
          27.5015668,
          48.3192323
        ]
      }
    },
    {
      "type": "Feature",
      "id": "node/2291477919",
      "properties": {
        "name": "154 Km",
        "railway": "halt",
        "uic_ref": "2301568",
        "id": "node/2291477919"
      },
      "geometry": {
        "type": "Point",
        "coordinates": [
          27.5478944,
          48.2550381
        ]
      }
    },
    {
      "type": "Feature",
      "id": "node/2291480390",
      "properties": {
        "description": "Fosta stație",
        "description:ru": "Бывшая станция (разъезд).",
        "esr:user": "393313",
        "name": "Pelinia",
        "name:ru": "Пеленей",
        "network": "Calea Feretą din Moldova(CFM)",
        "operator": "Calea Feretą din Moldova(CFM)",
        "railway": "halt",
        "uic_ref": "2300117",
        "id": "node/2291480390"
      },
      "geometry": {
        "type": "Point",
        "coordinates": [
          27.8804986,
          47.8543944
        ]
      }
    },
    {
      "type": "Feature",
      "id": "node/2291482836",
      "properties": {
        "name": "101 Km",
        "railway": "halt",
        "id": "node/2291482836"
      },
      "geometry": {
        "type": "Point",
        "coordinates": [
          27.8506222,
          47.9040201
        ]
      }
    },
    {
      "type": "Feature",
      "id": "node/2291490217",
      "properties": {
        "name": "Sărata Veche",
        "name:ru": "Сэрата Векь",
        "old_name:ru": "Старая Сарата",
        "railway": "halt",
        "uic_ref": "2300579",
        "id": "node/2291490217"
      },
      "geometry": {
        "type": "Point",
        "coordinates": [
          27.7549148,
          47.4886781
        ]
      }
    },
    {
      "type": "Feature",
      "id": "node/2291491638",
      "properties": {
        "name": "23 Km",
        "railway": "halt",
        "id": "node/2291491638"
      },
      "geometry": {
        "type": "Point",
        "coordinates": [
          27.6998698,
          47.3733931
        ]
      }
    },
    {
      "type": "Feature",
      "id": "node/2291496561",
      "properties": {
        "name": "Semeni",
        "name:ru": "Семень",
        "public_transport": "station",
        "railway": "halt",
        "id": "node/2291496561"
      },
      "geometry": {
        "type": "Point",
        "coordinates": [
          27.7603901,
          47.2756216
        ]
      }
    },
    {
      "type": "Feature",
      "id": "node/2291502555",
      "properties": {
        "name": "Berești",
        "operator": "CFM",
        "public_transport": "station",
        "railway": "station",
        "uic_ref": "2301554",
        "id": "node/2291502555"
      },
      "geometry": {
        "type": "Point",
        "coordinates": [
          27.8015387,
          47.2313464
        ]
      }
    },
    {
      "type": "Feature",
      "id": "node/2292159088",
      "properties": {
        "description": "Бывшая станция (разъезд.",
        "name": "Olișcani",
        "name:ru": "Олишканы",
        "railway": "halt",
        "uic_ref": "2301595",
        "id": "node/2292159088"
      },
      "geometry": {
        "type": "Point",
        "coordinates": [
          28.7125984,
          47.8260167
        ]
      }
    },
    {
      "type": "Feature",
      "id": "node/2292160425",
      "properties": {
        "name": "Cobîlnea",
        "operator": "CFM",
        "public_transport": "station",
        "railway": "station",
        "uic_ref": "2300565",
        "id": "node/2292160425"
      },
      "geometry": {
        "type": "Point",
        "coordinates": [
          28.6061663,
          47.8578227
        ]
      }
    },
    {
      "type": "Feature",
      "id": "node/2292162997",
      "properties": {
        "name": "Unchitești",
        "name:ru": "Ункитешты",
        "operator": "CFM",
        "public_transport": "station",
        "railway": "station",
        "train": "yes",
        "uic_ref": "2300566",
        "wikidata": "Q4475960",
        "id": "node/2292162997"
      },
      "geometry": {
        "type": "Point",
        "coordinates": [
          28.4899157,
          47.9075112
        ]
      }
    },
    {
      "type": "Feature",
      "id": "node/2292164282",
      "properties": {
        "name": "Pohoarna",
        "name:ru": "Погорна",
        "railway": "halt",
        "uic_ref": "2300120",
        "id": "node/2292164282"
      },
      "geometry": {
        "type": "Point",
        "coordinates": [
          28.4712292,
          47.8395062
        ]
      }
    },
    {
      "type": "Feature",
      "id": "node/2292164419",
      "properties": {
        "name": "Rogojeni",
        "name:ru": "Рогожены",
        "operator": "CFM",
        "public_transport": "station",
        "railway": "station",
        "uic_ref": "2300567",
        "id": "node/2292164419"
      },
      "geometry": {
        "type": "Point",
        "coordinates": [
          28.4425656,
          47.8326055
        ]
      }
    },
    {
      "type": "Feature",
      "id": "node/2292171171",
      "properties": {
        "name": "Elizaveta",
        "name:ru": "Елизаветовка",
        "railway": "halt",
        "id": "node/2292171171"
      },
      "geometry": {
        "type": "Point",
        "coordinates": [
          28.0024001,
          47.7924786
        ]
      }
    },
    {
      "type": "Feature",
      "id": "node/2292172612",
      "properties": {
        "name": "Nicolaevca",
        "name:ru": "Николаевка",
        "railway": "halt",
        "uic_ref": "2301562",
        "id": "node/2292172612"
      },
      "geometry": {
        "type": "Point",
        "coordinates": [
          27.8459589,
          47.2744525
        ]
      }
    },
    {
      "type": "Feature",
      "id": "node/2292176344",
      "properties": {
        "name": "Sipoteni",
        "name:ru": "Сипотены",
        "public_transport": "station",
        "railway": "station",
        "uic_ref": "2300586",
        "id": "node/2292176344"
      },
      "geometry": {
        "type": "Point",
        "coordinates": [
          28.2061947,
          47.2794081
        ]
      }
    },
    {
      "type": "Feature",
      "id": "node/2292177309",
      "properties": {
        "name": "Pitușca",
        "name:ru": "Питушка",
        "railway": "halt",
        "id": "node/2292177309"
      },
      "geometry": {
        "type": "Point",
        "coordinates": [
          28.4008346,
          47.216685
        ]
      }
    },
    {
      "type": "Feature",
      "id": "node/2292177576",
      "properties": {
        "name": "Bucovăț",
        "name:ru": "Быковец",
        "operator": "CFM",
        "public_transport": "station",
        "railway": "station",
        "ref": "http://www.railway.md",
        "train": "yes",
        "uic_ref": "2300588",
        "id": "node/2292177576"
      },
      "geometry": {
        "type": "Point",
        "coordinates": [
          28.4569995,
          47.1873901
        ]
      }
    },
    {
      "type": "Feature",
      "id": "node/2292180162",
      "properties": {
        "name": "Romașka",
        "name:ru": "Ромашка",
        "railway": "halt",
        "ref": "http://www.railway.md",
        "uic_ref": "2301573",
        "id": "node/2292180162"
      },
      "geometry": {
        "type": "Point",
        "coordinates": [
          28.6899269,
          47.1236474
        ]
      }
    },
    {
      "type": "Feature",
      "id": "node/2292185790",
      "properties": {
        "name": "Sîngera",
        "name:ru": "Сынджера",
        "railway": "halt",
        "uic_ref": "2301572",
        "id": "node/2292185790"
      },
      "geometry": {
        "type": "Point",
        "coordinates": [
          28.9793293,
          46.9325077
        ]
      }
    },
    {
      "type": "Feature",
      "id": "node/2292190032",
      "properties": {
        "esr:user": "390828",
        "name": "Chirca",
        "name:ru": "Кирка",
        "railway": "halt",
        "uic_ref": "2301540",
        "id": "node/2292190032"
      },
      "geometry": {
        "type": "Point",
        "coordinates": [
          29.1113724,
          46.9163508
        ]
      }
    },
    {
      "type": "Feature",
      "id": "node/2292192759",
      "properties": {
        "name": "Anenii-Noi",
        "name:ru": "Новые Анены",
        "railway": "halt",
        "uic_ref": "2301571",
        "id": "node/2292192759"
      },
      "geometry": {
        "type": "Point",
        "coordinates": [
          29.2428889,
          46.8902985
        ]
      }
    },
    {
      "type": "Feature",
      "id": "node/2292195561",
      "properties": {
        "name": "Calfa",
        "name:ru": "Калфа",
        "operator": "CFM",
        "public_transport": "station",
        "railway": "station",
        "id": "node/2292195561"
      },
      "geometry": {
        "type": "Point",
        "coordinates": [
          29.3675151,
          46.9086361
        ]
      }
    },
    {
      "type": "Feature",
      "id": "node/2292200605",
      "properties": {
        "name": "1503 Km",
        "name:ru": "1503 км",
        "railway": "halt",
        "id": "node/2292200605"
      },
      "geometry": {
        "type": "Point",
        "coordinates": [
          29.4240959,
          46.8991519
        ]
      }
    },
    {
      "type": "Feature",
      "id": "node/2292203131",
      "properties": {
        "name": "Bălțați",
        "name:ru": "Бэлцаць",
        "operator": "CFM",
        "public_transport": "station",
        "railway": "station",
        "id": "node/2292203131"
      },
      "geometry": {
        "type": "Point",
        "coordinates": [
          28.9511261,
          46.838771
        ]
      }
    },
    {
      "type": "Feature",
      "id": "node/2292206950",
      "properties": {
        "name": "63 Km",
        "name:ru": "63 км",
        "railway": "halt",
        "id": "node/2292206950"
      },
      "geometry": {
        "type": "Point",
        "coordinates": [
          29.0551073,
          46.6926874
        ]
      }
    },
    {
      "type": "Feature",
      "id": "node/2292209809",
      "properties": {
        "name": "Pervomaisc",
        "name:ru": "Первомайск",
        "railway": "halt",
        "id": "node/2292209809"
      },
      "geometry": {
        "type": "Point",
        "coordinates": [
          29.0765967,
          46.7000561
        ]
      }
    },
    {
      "type": "Feature",
      "id": "node/2292209810",
      "properties": {
        "name": "34 Km",
        "railway": "halt",
        "uic_ref": "2301589",
        "id": "node/2292209810"
      },
      "geometry": {
        "type": "Point",
        "coordinates": [
          29.0563695,
          46.7162278
        ]
      }
    },
    {
      "type": "Feature",
      "id": "node/2292212318",
      "properties": {
        "name": "Ciuflești",
        "name:ru": "Чуфлешты",
        "railway": "halt",
        "uic_ref": "2301565",
        "id": "node/2292212318"
      },
      "geometry": {
        "type": "Point",
        "coordinates": [
          28.924041,
          46.6367462
        ]
      }
    },
    {
      "type": "Feature",
      "id": "node/2292212667",
      "properties": {
        "name": "Satul Nou",
        "name:ru": "Новое Село",
        "railway": "halt",
        "uic_ref": "2301557",
        "id": "node/2292212667"
      },
      "geometry": {
        "type": "Point",
        "coordinates": [
          28.9271345,
          46.6144687
        ]
      }
    },
    {
      "type": "Feature",
      "id": "node/2292215055",
      "properties": {
        "esr:user": "399057",
        "name": "Ivanovca",
        "name:ru": "Ивановка",
        "railway": "halt",
        "uic_ref": "2300537",
        "id": "node/2292215055"
      },
      "geometry": {
        "type": "Point",
        "coordinates": [
          28.9363966,
          46.5090792
        ]
      }
    },
    {
      "type": "Feature",
      "id": "node/2292215152",
      "properties": {
        "name": "Iserlia",
        "name:ru": "Исерлия",
        "railway": "halt",
        "uic_ref": "2301507",
        "id": "node/2292215152"
      },
      "geometry": {
        "type": "Point",
        "coordinates": [
          28.948321,
          46.4782182
        ]
      }
    },
    {
      "type": "Feature",
      "id": "node/2292221308",
      "properties": {
        "esr:user": "398904",
        "name": "Abaclia",
        "name:ru": "Абаклия",
        "operator": "Calea Ferată din Moldova",
        "public_transport": "station",
        "railway": "station",
        "train": "yes",
        "uic_ref": "2300580",
        "id": "node/2292221308"
      },
      "geometry": {
        "type": "Point",
        "coordinates": [
          28.8986543,
          46.3587613
        ]
      }
    },
    {
      "type": "Feature",
      "id": "node/2292221537",
      "properties": {
        "name": "Cioc-Maidan",
        "name:ru": "Чок-Майдан",
        "railway": "halt",
        "uic_ref": "2301566",
        "id": "node/2292221537"
      },
      "geometry": {
        "type": "Point",
        "coordinates": [
          28.8143849,
          46.3766724
        ]
      }
    },
    {
      "type": "Feature",
      "id": "node/2292224726",
      "properties": {
        "description": "Бывшая станция (разъезд).",
        "name": "Cenac",
        "name:ru": "Ченак",
        "railway": "halt",
        "uic_ref": "2300598",
        "id": "node/2292224726"
      },
      "geometry": {
        "type": "Point",
        "coordinates": [
          28.5582735,
          46.467989
        ]
      }
    },
    {
      "type": "Feature",
      "id": "node/2292224951",
      "properties": {
        "name": "Hîrtop",
        "name:ru": "Хыртоп",
        "railway": "halt",
        "id": "node/2292224951"
      },
      "geometry": {
        "type": "Point",
        "coordinates": [
          28.4927841,
          46.4827703
        ]
      }
    },
    {
      "type": "Feature",
      "id": "node/2292225286",
      "properties": {
        "name": "Băiuș",
        "name:ru": "Бэюш",
        "railway": "halt",
        "id": "node/2292225286"
      },
      "geometry": {
        "type": "Point",
        "coordinates": [
          28.4736087,
          46.4539687
        ]
      }
    },
    {
      "type": "Feature",
      "id": "node/2292882785",
      "properties": {
        "name": "Iargara",
        "name:ru": "Яргара",
        "operator": "CFM",
        "public_transport": "station",
        "railway": "station",
        "train": "yes",
        "id": "node/2292882785"
      },
      "geometry": {
        "type": "Point",
        "coordinates": [
          28.4318522,
          46.4235598
        ]
      }
    },
    {
      "type": "Feature",
      "id": "node/2292886828",
      "properties": {
        "name": "Hănăseni",
        "name:ru": "Хэнэшены",
        "railway": "halt",
        "id": "node/2292886828"
      },
      "geometry": {
        "type": "Point",
        "coordinates": [
          28.3204828,
          46.3499777
        ]
      }
    },
    {
      "type": "Feature",
      "id": "node/2292889021",
      "properties": {
        "name": "Tătărești",
        "name:ru": "Татарешты",
        "railway": "halt",
        "id": "node/2292889021"
      },
      "geometry": {
        "type": "Point",
        "coordinates": [
          28.2931888,
          46.3342118
        ]
      }
    },
    {
      "type": "Feature",
      "id": "node/2292892066",
      "properties": {
        "name": "Prut-2",
        "name:ru": "Прут-2",
        "operator": "CFM",
        "public_transport": "station",
        "railway": "station",
        "train": "yes",
        "id": "node/2292892066"
      },
      "geometry": {
        "type": "Point",
        "coordinates": [
          28.1885866,
          46.2731391
        ]
      }
    },
    {
      "type": "Feature",
      "id": "node/2292894902",
      "properties": {
        "name": "Prut",
        "name:ru": "Прут",
        "operator": "CFM",
        "public_transport": "station",
        "railway": "station",
        "train": "yes",
        "uic_ref": "2301585",
        "id": "node/2292894902"
      },
      "geometry": {
        "type": "Point",
        "coordinates": [
          28.2333876,
          46.2831351
        ]
      }
    },
    {
      "type": "Feature",
      "id": "node/2292896927",
      "properties": {
        "esr:user": "396819",
        "name": "Stoianovca",
        "name:bg": "Стояновка",
        "name:ru": "Стояновка",
        "railway": "halt",
        "uic_ref": "2300624",
        "id": "node/2292896927"
      },
      "geometry": {
        "type": "Point",
        "coordinates": [
          28.1539932,
          46.2451196
        ]
      }
    },
    {
      "type": "Feature",
      "id": "node/2292899627",
      "properties": {
        "name": "Gheltosu",
        "name:ru": "Гёлтосу",
        "railway": "halt",
        "id": "node/2292899627"
      },
      "geometry": {
        "type": "Point",
        "coordinates": [
          28.1565491,
          46.1911273
        ]
      }
    },
    {
      "type": "Feature",
      "id": "node/2292902645",
      "properties": {
        "name": "Flămînda",
        "name:ru": "Флэмында",
        "railway": "halt",
        "id": "node/2292902645"
      },
      "geometry": {
        "type": "Point",
        "coordinates": [
          28.153852,
          46.1633584
        ]
      }
    },
    {
      "type": "Feature",
      "id": "node/2292911924",
      "properties": {
        "name": "Chircani",
        "name:ru": "Кирканы",
        "railway": "halt",
        "id": "node/2292911924"
      },
      "geometry": {
        "type": "Point",
        "coordinates": [
          28.1728572,
          46.0908162
        ]
      }
    },
    {
      "type": "Feature",
      "id": "node/2292915298",
      "properties": {
        "name": "Zîrnești",
        "name:ru": "Зырнешты",
        "railway": "halt",
        "uic_ref": "2300632",
        "id": "node/2292915298"
      },
      "geometry": {
        "type": "Point",
        "coordinates": [
          28.1674018,
          46.0113941
        ]
      }
    },
    {
      "type": "Feature",
      "id": "node/2292917848",
      "properties": {
        "esr:user": "398849",
        "name": "Chiriet-Lunga",
        "name:gag": "Kiriyet",
        "name:ru": "Кириет-Лунга",
        "railway": "halt",
        "uic_ref": "2300545",
        "id": "node/2292917848"
      },
      "geometry": {
        "type": "Point",
        "coordinates": [
          28.9374481,
          46.2096182
        ]
      }
    },
    {
      "type": "Feature",
      "id": "node/2292918693",
      "properties": {
        "esr:user": "398815",
        "name": "Beșchioz",
        "name:gag": "Beșgöz",
        "name:ru": "Бешгёз",
        "railway": "halt",
        "uic_ref": "2300520",
        "id": "node/2292918693"
      },
      "geometry": {
        "type": "Point",
        "coordinates": [
          28.8697569,
          46.1240462
        ]
      }
    },
    {
      "type": "Feature",
      "id": "node/2292918885",
      "properties": {
        "esr:user": "398726",
        "name": "Chiriutnea (Corten)",
        "name:ru": "Кирютня (Кортен)",
        "operator": "CFM",
        "public_transport": "station",
        "railway": "station",
        "train": "yes",
        "uic_ref": "2300615",
        "id": "node/2292918885"
      },
      "geometry": {
        "type": "Point",
        "coordinates": [
          28.769385,
          46.0056143
        ]
      }
    },
    {
      "type": "Feature",
      "id": "node/2292925224",
      "properties": {
        "name": "208 Km",
        "name:ar": "Разъезд 208 км",
        "operator": "CFM",
        "public_transport": "station",
        "railway": "station",
        "train": "yes",
        "uic_ref": "2300107",
        "id": "node/2292925224"
      },
      "geometry": {
        "type": "Point",
        "coordinates": [
          28.6001886,
          45.833152
        ]
      }
    },
    {
      "type": "Feature",
      "id": "node/2292933287",
      "properties": {
        "esr:user": "398505",
        "name": "Greceni",
        "name:ru": "Гречены",
        "operator": "CFM",
        "public_transport": "station",
        "railway": "station",
        "train": "yes",
        "uic_ref": "2300618",
        "wikidata": "Q91342309",
        "id": "node/2292933287"
      },
      "geometry": {
        "type": "Point",
        "coordinates": [
          28.5322045,
          45.7592077
        ]
      }
    },
    {
      "type": "Feature",
      "id": "node/2292937579",
      "properties": {
        "name": "Etulia",
        "name:bg": "Етулия",
        "name:gag": "Tülüküü",
        "name:gag-cyr": "Тӱлӱкӱӱ",
        "name:ro": "Etulia",
        "name:ru": "Этулия",
        "operator": "CFM",
        "public_transport": "station",
        "railway": "station",
        "train": "yes",
        "uic_ref": "2300619",
        "wikidata": "Q2066839",
        "wikipedia": "ru:Етулия (железнодорожная станция)",
        "id": "node/2292937579"
      },
      "geometry": {
        "type": "Point",
        "coordinates": [
          28.4294748,
          45.545864
        ]
      }
    },
    {
      "type": "Feature",
      "id": "node/2292942283",
      "properties": {
        "description": "Бывшая станция (разъезд).",
        "name": "Cuza-Vodă",
        "name:ru": "Куза-Водэ",
        "railway": "halt",
        "id": "node/2292942283"
      },
      "geometry": {
        "type": "Point",
        "coordinates": [
          28.4455118,
          45.6083994
        ]
      }
    },
    {
      "type": "Feature",
      "id": "node/2293886313",
      "properties": {
        "alt_name:ru": "Большая Слободзея",
        "name": "Slobozia-Mare",
        "name:ru": "Слобозия-Маре",
        "railway": "halt",
        "id": "node/2293886313"
      },
      "geometry": {
        "type": "Point",
        "coordinates": [
          28.1599965,
          45.58773
        ]
      }
    },
    {
      "type": "Feature",
      "id": "node/2293886648",
      "properties": {
        "name": "Văleni",
        "name:ru": "Вэлень",
        "railway": "halt",
        "uic_ref": "2300631",
        "id": "node/2293886648"
      },
      "geometry": {
        "type": "Point",
        "coordinates": [
          28.1734525,
          45.6420584
        ]
      }
    },
    {
      "type": "Feature",
      "id": "node/2293888236",
      "properties": {
        "name": "Vadul-lui-Isac",
        "name:ru": "Вадул-луй-Исак",
        "railway": "halt",
        "id": "node/2293888236"
      },
      "geometry": {
        "type": "Point",
        "coordinates": [
          28.1605021,
          45.761378
        ]
      }
    },
    {
      "type": "Feature",
      "id": "node/2293889527",
      "properties": {
        "name": "Manta",
        "name:ru": "Манта",
        "railway": "halt",
        "id": "node/2293889527"
      },
      "geometry": {
        "type": "Point",
        "coordinates": [
          28.1725696,
          45.8021592
        ]
      }
    },
    {
      "type": "Feature",
      "id": "node/2293889742",
      "properties": {
        "name": "Pașcani",
        "name:ru": "Пашканы",
        "railway": "halt",
        "id": "node/2293889742"
      },
      "geometry": {
        "type": "Point",
        "coordinates": [
          28.1831111,
          45.8320372
        ]
      }
    },
    {
      "type": "Feature",
      "id": "node/3097334151",
      "properties": {
        "name": "Новосавицкая",
        "name:de": "Nowosawizkaja",
        "name:en": "Novosavitskaya",
        "name:md": "Новосавицкая",
        "name:ro": "Novosavițcaia",
        "name:ru": "Новосавицкая",
        "name:uk": "Новосавицька",
        "operator": "Приднестровская железная дорога",
        "public_transport": "station",
        "railway": "station",
        "uic_ref": "2300536",
        "wikidata": "Q12134203",
        "wikipedia": "ru:Новосавицкая (станция)",
        "id": "node/3097334151"
      },
      "geometry": {
        "type": "Point",
        "coordinates": [
          29.8693316,
          46.8017653
        ]
      }
    },
    {
      "type": "Feature",
      "id": "node/3126148100",
      "properties": {
        "name": "Ghizdita",
        "name:ru": "Гиздита",
        "public_transport": "station",
        "railway": "station",
        "uic_ref": "2301576",
        "wikidata": "Q4138215",
        "id": "node/3126148100"
      },
      "geometry": {
        "type": "Point",
        "coordinates": [
          27.7324529,
          48.1041271
        ]
      }
    },
    {
      "type": "Feature",
      "id": "node/3126151421",
      "properties": {
        "name": "Răuțel",
        "name:ro": "Răuțel",
        "name:ru": "Реуцел",
        "public_transport": "station",
        "railway": "station",
        "uic_ref": "2300575",
        "id": "node/3126151421"
      },
      "geometry": {
        "type": "Point",
        "coordinates": [
          27.8191584,
          47.718496
        ]
      }
    },
    {
      "type": "Feature",
      "id": "node/3126152836",
      "properties": {
        "name": "Zagarancea",
        "name:ru": "Загаранча",
        "railway": "halt",
        "id": "node/3126152836"
      },
      "geometry": {
        "type": "Point",
        "coordinates": [
          27.774796,
          47.2442206
        ]
      }
    },
    {
      "type": "Feature",
      "id": "node/3178546318",
      "properties": {
        "alt_name": "Km 1497",
        "name": "Varnița",
        "name:md": "Варница",
        "name:ro": "Varnița",
        "name:ru": "Варница",
        "name:uk": "Варниця",
        "railway": "halt",
        "id": "node/3178546318"
      },
      "geometry": {
        "type": "Point",
        "coordinates": [
          29.4747947,
          46.8700004
        ]
      }
    },
    {
      "type": "Feature",
      "id": "node/3178556407",
      "properties": {
        "esr:user": "390654",
        "name": "Северный микрорайон",
        "name:md": "Картиерул де Норд",
        "name:ro": "Cartierul de Nord",
        "name:ru": "Северный микрорайон",
        "name:uk": "Північний мікрорайон",
        "railway": "halt",
        "id": "node/3178556407"
      },
      "geometry": {
        "type": "Point",
        "coordinates": [
          29.467296,
          46.8842011
        ]
      }
    },
    {
      "type": "Feature",
      "id": "node/3279606215",
      "properties": {
        "esr:user": "396608",
        "name": "Колбасная",
        "name:md": "Кобасна",
        "name:ro": "Cobasna",
        "name:ru": "Колбасная",
        "name:uk": "Колбасна",
        "operator": "Приднестровская ж.д.",
        "public_transport": "station",
        "railway": "station",
        "uic_ref": "2300488",
        "id": "node/3279606215"
      },
      "geometry": {
        "type": "Point",
        "coordinates": [
          29.2173737,
          47.7591322
        ]
      }
    },
    {
      "type": "Feature",
      "id": "node/3510433779",
      "properties": {
        "esr:user": "398622",
        "name": "200 Km",
        "name:ru": "200 км",
        "railway": "halt",
        "id": "node/3510433779"
      },
      "geometry": {
        "type": "Point",
        "coordinates": [
          28.6413504,
          45.8879182
        ]
      }
    },
    {
      "type": "Feature",
      "id": "node/3663762882",
      "properties": {
        "esr:user": "391835",
        "name": "1636 Km",
        "railway": "halt",
        "id": "node/3663762882"
      },
      "geometry": {
        "type": "Point",
        "coordinates": [
          27.9817498,
          47.3400256
        ]
      }
    },
    {
      "type": "Feature",
      "id": "node/3709907313",
      "properties": {
        "name": "Postul de călătorie 1501 Km",
        "name:ru": "Путевой пост 1501 км",
        "public_transport": "station",
        "railway": "station",
        "id": "node/3709907313"
      },
      "geometry": {
        "type": "Point",
        "coordinates": [
          29.4493227,
          46.8923777
        ]
      }
    },
    {
      "type": "Feature",
      "id": "node/3709911744",
      "properties": {
        "name": "Chișinău-2",
        "name:ru": "Кишинёв-2",
        "railway": "halt",
        "id": "node/3709911744"
      },
      "geometry": {
        "type": "Point",
        "coordinates": [
          28.8701074,
          47.0044845
        ]
      }
    },
    {
      "type": "Feature",
      "id": "node/4249988778",
      "properties": {
        "esr:user": "390404",
        "int_name": "Livada",
        "name": "Ливада",
        "name:de": "Liwada",
        "name:en": "Livada",
        "name:md": "Ливада",
        "name:ro": "Livada",
        "name:uk": "Лівада",
        "operator": "Приднестровская железная дорога",
        "railway": "station",
        "wikidata": "Q4260913",
        "wikipedia": "ru:Ливада (станция)",
        "id": "node/4249988778"
      },
      "geometry": {
        "type": "Point",
        "coordinates": [
          29.9574534,
          46.7176635
        ]
      }
    },
    {
      "type": "Feature",
      "id": "node/4461264423",
      "properties": {
        "esr:user": "391426",
        "name": "Plajă",
        "name:ru": "Пляж",
        "railway": "halt",
        "id": "node/4461264423"
      },
      "geometry": {
        "type": "Point",
        "coordinates": [
          28.7362404,
          47.0933911
        ]
      }
    },
    {
      "type": "Feature",
      "id": "node/4500193227",
      "properties": {
        "designation": "2300555",
        "esr:user": "393703",
        "int_name": "Tîrnovo",
        "name": "Tîrnova",
        "name:ru": "Тырново",
        "network": "CFM",
        "operator": "CFM",
        "platforms": "2",
        "public_transport": "station",
        "railway": "station",
        "ref": "393703",
        "uic_ref": "2300555",
        "wikidata": "Q91331226",
        "id": "node/4500193227"
      },
      "geometry": {
        "type": "Point",
        "coordinates": [
          27.6481339,
          48.1646439
        ]
      }
    },
    {
      "type": "Feature",
      "id": "node/4748715104",
      "properties": {
        "esr:user": "390103",
        "int_name": "Tiraspol",
        "name": "Тирасполь",
        "name:de": "Tiraspol",
        "name:en": "Tiraspol",
        "name:hu": "Tiraszpol",
        "name:md": "Тираспол",
        "name:ro": "Tiraspol",
        "name:ru": "Тирасполь",
        "name:uk": "Тирасполь",
        "operator": "Приднестровская железная дорога",
        "public_transport": "station",
        "railway": "station",
        "railway:ref:DB": "ZMT",
        "uic_ref": "2300610",
        "wikidata": "Q4178933",
        "wikipedia": "ru:Тирасполь (станция)",
        "id": "node/4748715104"
      },
      "geometry": {
        "type": "Point",
        "coordinates": [
          29.629596,
          46.8476247
        ]
      }
    },
    {
      "type": "Feature",
      "id": "node/5720107026",
      "properties": {
        "esr:user": "396805",
        "name": "Gotești",
        "name:ru": "Готешты",
        "railway": "halt",
        "uic_ref": "2301552",
        "id": "node/5720107026"
      },
      "geometry": {
        "type": "Point",
        "coordinates": [
          28.1695389,
          46.1345249
        ]
      }
    },
    {
      "type": "Feature",
      "id": "node/6390665511",
      "properties": {
        "name": "Giurgiuleşti",
        "name:ru": "Джурджулешты",
        "operator": "CFM",
        "railway": "station",
        "train": "yes",
        "wikidata": "Q79854420",
        "id": "node/6390665511"
      },
      "geometry": {
        "type": "Point",
        "coordinates": [
          28.2026853,
          45.4717914
        ]
      }
    },
    {
      "type": "Feature",
      "id": "node/6630800100",
      "properties": {
        "esr:user": "398853",
        "name": "Culma",
        "name:ru": "Кульма",
        "operator": "CFM",
        "public_transport": "station",
        "railway": "station",
        "train": "yes",
        "uic_ref": "2300539",
        "wikidata": "Q25394738",
        "wikipedia": "ru:Кульма (станция)",
        "id": "node/6630800100"
      },
      "geometry": {
        "type": "Point",
        "coordinates": [
          28.9311649,
          46.2612052
        ]
      }
    },
    {
      "type": "Feature",
      "id": "node/6630990439",
      "properties": {
        "esr:user": "394212",
        "name": "Naslavcea",
        "name:ru": "Наславча",
        "public_transport": "station",
        "railway": "station",
        "train": "yes",
        "uic_ref": "2301575",
        "wikidata": "Q91623836",
        "id": "node/6630990439"
      },
      "geometry": {
        "type": "Point",
        "coordinates": [
          27.5760883,
          48.4391779
        ]
      }
    },
    {
      "type": "Feature",
      "id": "node/6632662216",
      "properties": {
        "name": "193 Km",
        "name:ru": "193 км",
        "railway": "halt",
        "id": "node/6632662216"
      },
      "geometry": {
        "type": "Point",
        "coordinates": [
          27.5857026,
          48.4618089
        ]
      }
    },
    {
      "type": "Feature",
      "id": "node/6632702529",
      "properties": {
        "name": "202 Km",
        "name:ru": "202 км",
        "railway": "halt",
        "id": "node/6632702529"
      },
      "geometry": {
        "type": "Point",
        "coordinates": [
          27.6972553,
          48.4446327
        ]
      }
    },
    {
      "type": "Feature",
      "id": "node/6633170650",
      "properties": {
        "alt_name:ru": "Атаки",
        "name": "Otaci",
        "name:ru": "Отачь",
        "railway": "halt",
        "id": "node/6633170650"
      },
      "geometry": {
        "type": "Point",
        "coordinates": [
          27.7753012,
          48.4458833
        ]
      }
    },
    {
      "type": "Feature",
      "id": "node/6700081637",
      "properties": {
        "name": "75 Km",
        "railway": "halt",
        "id": "node/6700081637"
      },
      "geometry": {
        "type": "Point",
        "coordinates": [
          27.8669129,
          47.7393304
        ]
      }
    },
    {
      "type": "Feature",
      "id": "node/6713036073",
      "properties": {
        "name": "Vulcănești",
        "name:gag": "Valkaneș",
        "name:gag-cyr": "Валканеш",
        "name:ru": "Вулканешты",
        "operator": "CFM",
        "public_transport": "station",
        "railway": "station",
        "train": "yes",
        "wikidata": "Q91468219",
        "id": "node/6713036073"
      },
      "geometry": {
        "type": "Point",
        "coordinates": [
          28.4829653,
          45.6847652
        ]
      }
    },
    {
      "type": "Feature",
      "id": "node/7289796227",
      "properties": {
        "name": "Chișinău-3 (S.T.V.C. - direcția Bender)",
        "name:en": "Chișinău-3 (S.T.V.C. - direction Bender)",
        "name:mo": "Chișinău-3 (S.T.V.C. - direcția Bender)",
        "name:ro": "Chișinău-3 (S.T.V.C. - direcția Bender)",
        "name:ru": "Кишинёв-3 (S.T.V.C. - направление Бендеры)",
        "railway": "halt",
        "id": "node/7289796227"
      },
      "geometry": {
        "type": "Point",
        "coordinates": [
          28.9063148,
          46.9796112
        ]
      }
    },
    {
      "type": "Feature",
      "id": "node/7673943358",
      "properties": {
        "name": "172 km",
        "name:ru": "О.п. 172 км",
        "railway": "halt",
        "id": "node/7673943358"
      },
      "geometry": {
        "type": "Point",
        "coordinates": [
          27.5099005,
          48.386213
        ]
      }
    },
    {
      "type": "Feature",
      "id": "node/7748192638",
      "properties": {
        "name": "Brătușeni",
        "name:ru": "Братушаны",
        "network": "CFM",
        "operator": "CFM",
        "public_transport": "station",
        "railway": "station",
        "id": "node/7748192638"
      },
      "geometry": {
        "type": "Point",
        "coordinates": [
          27.38907,
          48.1390586
        ]
      }
    },
    {
      "type": "Feature",
      "id": "node/7772947019",
      "properties": {
        "name": "Revaca",
        "name:ru": "Ревака",
        "public_transport": "station",
        "railway": "station",
        "train": "yes",
        "wikidata": "Q56367124",
        "id": "node/7772947019"
      },
      "geometry": {
        "type": "Point",
        "coordinates": [
          28.9326095,
          46.9494623
        ]
      }
    },
    {
      "type": "Feature",
      "id": "node/7775064293",
      "properties": {
        "name": "113 Km",
        "railway": "halt",
        "id": "node/7775064293"
      },
      "geometry": {
        "type": "Point",
        "coordinates": [
          27.839172,
          47.9991731
        ]
      }
    },
    {
      "type": "Feature",
      "id": "node/7821536515",
      "properties": {
        "name": "Glodeni",
        "name:ru": "Глодяны",
        "operator": "CFM",
        "railway": "station",
        "station": "cargo",
        "id": "node/7821536515"
      },
      "geometry": {
        "type": "Point",
        "coordinates": [
          27.5213165,
          47.8026379
        ]
      }
    },
    {
      "type": "Feature",
      "id": "node/7847378673",
      "properties": {
        "esr:user": "390809",
        "name": "Socoleni",
        "name:ru": "Соколены",
        "operator": "Calea ferată din Moldova",
        "public_transport": "station",
        "railway": "station",
        "uic_ref": "2300594",
        "id": "node/7847378673"
      },
      "geometry": {
        "type": "Point",
        "coordinates": [
          29.1883265,
          46.9033648
        ]
      }
    },
    {
      "type": "Feature",
      "id": "node/7851554784",
      "properties": {
        "name": "Ungheni",
        "public_transport": "stop_position",
        "railway": "stop",
        "train": "yes",
        "id": "node/7851554784"
      },
      "geometry": {
        "type": "Point",
        "coordinates": [
          27.8002113,
          47.2033278
        ]
      }
    },
    {
      "type": "Feature",
      "id": "node/7863293589",
      "properties": {
        "name": "Unțești",
        "name:ru": "Унцешты",
        "railway": "halt",
        "id": "node/7863293589"
      },
      "geometry": {
        "type": "Point",
        "coordinates": [
          27.8284415,
          47.2400293
        ]
      }
    },
    {
      "type": "Feature",
      "id": "node/7863515988",
      "properties": {
        "name": "Unțești",
        "name:ru": "Унцешты",
        "operator": "CFM",
        "railway": "station",
        "id": "node/7863515988"
      },
      "geometry": {
        "type": "Point",
        "coordinates": [
          27.8294698,
          47.2448031
        ]
      }
    },
    {
      "type": "Feature",
      "id": "node/7877754681",
      "properties": {
        "name": "Călărași",
        "public_transport": "stop_position",
        "railway": "stop",
        "train": "yes",
        "id": "node/7877754681"
      },
      "geometry": {
        "type": "Point",
        "coordinates": [
          28.3346092,
          47.2442954
        ]
      }
    },
    {
      "type": "Feature",
      "id": "node/7915730621",
      "properties": {
        "name": "Sîngera",
        "name:ru": "Сынжера",
        "railway": "halt",
        "id": "node/7915730621"
      },
      "geometry": {
        "type": "Point",
        "coordinates": [
          28.9738176,
          46.9190754
        ]
      }
    },
    {
      "type": "Feature",
      "id": "node/7917308647",
      "properties": {
        "name": "Parc Revaca",
        "name:ru": "Парк Ревака",
        "operator": "CFM",
        "railway": "station",
        "id": "node/7917308647"
      },
      "geometry": {
        "type": "Point",
        "coordinates": [
          29.011884,
          46.9080999
        ]
      }
    },
    {
      "type": "Feature",
      "id": "node/7918860124",
      "properties": {
        "name": "Dobrogea",
        "name:ru": "Добружа",
        "railway": "halt",
        "id": "node/7918860124"
      },
      "geometry": {
        "type": "Point",
        "coordinates": [
          29.0007569,
          46.8916019
        ]
      }
    },
    {
      "type": "Feature",
      "id": "node/7920588191",
      "properties": {
        "railway": "halt",
        "id": "node/7920588191"
      },
      "geometry": {
        "type": "Point",
        "coordinates": [
          29.0030135,
          46.7469896
        ]
      }
    },
    {
      "type": "Feature",
      "id": "node/7934156757",
      "properties": {
        "description": "Бывшая станция (обгонный пункт). В направлении станции Ларга действовал двухпутный участок.",
        "name": "Varticauți",
        "name:ru": "Вартико́вцы",
        "name:uk": "Вартиківці",
        "railway": "halt",
        "id": "node/7934156757"
      },
      "geometry": {
        "type": "Point",
        "coordinates": [
          26.8110571,
          48.3922669
        ]
      }
    },
    {
      "type": "Feature",
      "id": "node/7942054857",
      "properties": {
        "name": "Mărculești",
        "name:ru": "Маркулешты",
        "operator": "CFM",
        "public_transport": "station",
        "railway": "station",
        "train": "yes",
        "uic_ref": "2300571",
        "id": "node/7942054857"
      },
      "geometry": {
        "type": "Point",
        "coordinates": [
          28.2301165,
          47.8732572
        ]
      }
    },
    {
      "type": "Feature",
      "id": "node/7950862371",
      "properties": {
        "description": "Бывшая станция (разъезд).",
        "name": "Cuhurești",
        "name:ru": "Кухурешты",
        "railway": "halt",
        "id": "node/7950862371"
      },
      "geometry": {
        "type": "Point",
        "coordinates": [
          28.5529426,
          47.90822
        ]
      }
    },
    {
      "type": "Feature",
      "id": "node/7953375077",
      "properties": {
        "name": "Șoldănești",
        "name:ru": "Шолданешты",
        "operator": "CFM",
        "public_transport": "station",
        "railway": "station",
        "id": "node/7953375077"
      },
      "geometry": {
        "type": "Point",
        "coordinates": [
          28.7912174,
          47.8176283
        ]
      }
    },
    {
      "type": "Feature",
      "id": "node/7957497033",
      "properties": {
        "name": "106 Km",
        "name:ru": "106 км",
        "railway": "halt",
        "id": "node/7957497033"
      },
      "geometry": {
        "type": "Point",
        "coordinates": [
          28.8351401,
          47.8235791
        ]
      }
    },
    {
      "type": "Feature",
      "id": "node/7958563308",
      "properties": {
        "name": "Mateuți",
        "name:ru": "Матеуцы",
        "operator": "CFM",
        "public_transport": "station",
        "railway": "station",
        "train": "yes",
        "uic_ref": "2300626",
        "id": "node/7958563308"
      },
      "geometry": {
        "type": "Point",
        "coordinates": [
          28.9489313,
          47.7985578
        ]
      }
    },
    {
      "type": "Feature",
      "id": "node/7985243719",
      "properties": {
        "railway": "halt",
        "id": "node/7985243719"
      },
      "geometry": {
        "type": "Point",
        "coordinates": [
          29.4546062,
          46.8909638
        ]
      }
    },
    {
      "type": "Feature",
      "id": "node/7986590398",
      "properties": {
        "esr:user": "390601",
        "int_name": "Bendery-2",
        "name": "Бендеры-2",
        "name:de": "Bendery-2",
        "name:en": "Bendery-2",
        "name:md": "Бендер-2",
        "name:ro": "Bender-2",
        "name:ru": "Бендеры-2",
        "name:uk": "Бендери-2",
        "operator": "Приднестровская ж.д.",
        "public_transport": "station",
        "railway": "station",
        "uic_ref": "2300597",
        "wikidata": "Q4083705",
        "wikipedia": "ru:Бендеры-2",
        "id": "node/7986590398"
      },
      "geometry": {
        "type": "Point",
        "coordinates": [
          29.4759273,
          46.8428982
        ]
      }
    },
    {
      "type": "Feature",
      "id": "node/7997089033",
      "properties": {
        "name": "Парканы",
        "railway": "halt",
        "id": "node/7997089033"
      },
      "geometry": {
        "type": "Point",
        "coordinates": [
          29.5259076,
          46.8389675
        ]
      }
    },
    {
      "type": "Feature",
      "id": "node/7997218951",
      "properties": {
        "name": "Пост Парканы",
        "operator": "Приднестровская ж.д.",
        "railway": "station",
        "id": "node/7997218951"
      },
      "geometry": {
        "type": "Point",
        "coordinates": [
          29.499812,
          46.8339668
        ]
      }
    },
    {
      "type": "Feature",
      "id": "node/8021813318",
      "properties": {
        "name": "Căuşeni",
        "name:ru": "Каушаны",
        "operator": "CFM",
        "public_transport": "station",
        "railway": "station",
        "id": "node/8021813318"
      },
      "geometry": {
        "type": "Point",
        "coordinates": [
          29.448384,
          46.6755681
        ]
      }
    },
    {
      "type": "Feature",
      "id": "node/8026753687",
      "properties": {
        "name": "Hagimus",
        "name:ru": "Хаджимус",
        "operator": "CFM",
        "railway": "station",
        "id": "node/8026753687"
      },
      "geometry": {
        "type": "Point",
        "coordinates": [
          29.5189746,
          46.7413235
        ]
      }
    },
    {
      "type": "Feature",
      "id": "node/8035936781",
      "properties": {
        "name": "Selemet",
        "name:ru": "Селемет",
        "railway": "halt",
        "id": "node/8035936781"
      },
      "geometry": {
        "type": "Point",
        "coordinates": [
          28.9196807,
          46.5754434
        ]
      }
    },
    {
      "type": "Feature",
      "id": "node/8041291320",
      "properties": {
        "railway": "halt",
        "id": "node/8041291320"
      },
      "geometry": {
        "type": "Point",
        "coordinates": [
          28.9902953,
          46.3407221
        ]
      }
    },
    {
      "type": "Feature",
      "id": "node/8050362231",
      "properties": {
        "name": "18 Km",
        "name:ru": "18 км",
        "railway": "halt",
        "id": "node/8050362231"
      },
      "geometry": {
        "type": "Point",
        "coordinates": [
          28.7718025,
          46.3427202
        ]
      }
    },
    {
      "type": "Feature",
      "id": "node/8068929829",
      "properties": {
        "name": "Post 8 km",
        "name:ru": "Путевой пост 8 км",
        "operator": "CFM",
        "railway": "station",
        "train": "yes",
        "id": "node/8068929829"
      },
      "geometry": {
        "type": "Point",
        "coordinates": [
          28.1504187,
          46.2662136
        ]
      }
    },
    {
      "type": "Feature",
      "id": "node/8071505366",
      "properties": {
        "name": "26 Km",
        "name:ru": "26 км",
        "railway": "halt",
        "id": "node/8071505366"
      },
      "geometry": {
        "type": "Point",
        "coordinates": [
          28.1666739,
          46.0439126
        ]
      }
    },
    {
      "type": "Feature",
      "id": "node/8073590457",
      "properties": {
        "name": "44 Km",
        "name:ru": "44 км",
        "railway": "halt",
        "id": "node/8073590457"
      },
      "geometry": {
        "type": "Point",
        "coordinates": [
          28.1809293,
          45.8995766
        ]
      }
    },
    {
      "type": "Feature",
      "id": "node/8569989507",
      "properties": {
        "name": "Ungheni",
        "public_transport": "stop_position",
        "railway": "stop",
        "train": "yes",
        "id": "node/8569989507"
      },
      "geometry": {
        "type": "Point",
        "coordinates": [
          27.799775,
          47.2035302
        ]
      }
    },
    {
      "type": "Feature",
      "id": "node/8706735150",
      "properties": {
        "name": "Chișinău",
        "public_transport": "stop_position",
        "railway": "stop",
        "train": "yes",
        "id": "node/8706735150"
      },
      "geometry": {
        "type": "Point",
        "coordinates": [
          28.8602572,
          47.0130771
        ]
      }
    },
    {
      "type": "Feature",
      "id": "node/8706735151",
      "properties": {
        "name": "Chișinău",
        "public_transport": "stop_position",
        "railway": "stop",
        "train": "yes",
        "id": "node/8706735151"
      },
      "geometry": {
        "type": "Point",
        "coordinates": [
          28.8601523,
          47.0130242
        ]
      }
    },
    {
      "type": "Feature",
      "id": "node/8706735152",
      "properties": {
        "name": "Chișinău",
        "public_transport": "stop_position",
        "railway": "stop",
        "train": "yes",
        "id": "node/8706735152"
      },
      "geometry": {
        "type": "Point",
        "coordinates": [
          28.8601035,
          47.012994
        ]
      }
    },
    {
      "type": "Feature",
      "id": "node/9434739071",
      "properties": {
        "name": "Gara Auto Vulcănești",
        "name:ru": "Автовокзал Вулканешты",
        "public_transport": "station",
        "id": "node/9434739071"
      },
      "geometry": {
        "type": "Point",
        "coordinates": [
          28.4162008,
          45.685503
        ]
      }
    }
  ]
}