{
  "type": "FeatureCollection",
  "features": [
    {
      "type": "Feature",
      "id": "node/217698",
      "properties": {
        "name": "Nyköping C",
        "public_transport": "stop_position",
        "railway": "stop",
        "ref": "Nk",
        "train": "yes",
        "id": "node/217698"
      },
      "geometry": {
        "type": "Point",
        "coordinates": [
          16.9965286,
          58.756526
        ]
      }
    },
    {
      "type": "Feature",
      "id": "node/279705",
      "properties": {
        "name": "Linköping C",
        "public_transport": "stop_position",
        "railway": "stop",
        "railway:track_ref": "2",
        "ref": "Lp",
        "train": "yes",
        "id": "node/279705"
      },
      "geometry": {
        "type": "Point",
        "coordinates": [
          15.6261724,
          58.4162096
        ]
      }
    },
    {
      "type": "Feature",
      "id": "node/310489",
      "properties": {
        "name": "Vagnhärad",
        "public_transport": "stop_position",
        "railway": "stop",
        "ref": "Vhd",
        "train": "yes",
        "id": "node/310489"
      },
      "geometry": {
        "type": "Point",
        "coordinates": [
          17.497741,
          58.9455941
        ]
      }
    },
    {
      "type": "Feature",
      "id": "node/312051",
      "properties": {
        "name": "Huddinge",
        "public_transport": "station",
        "railway": "station",
        "railway:ref": "Hu",
        "sl_stop_id": "9527",
        "source": "local knowledge",
        "wheelchair": "yes",
        "wikidata": "Q10526839",
        "wikipedia": "sv:Huddinge station",
        "id": "node/312051"
      },
      "geometry": {
        "type": "Point",
        "coordinates": [
          17.9787254,
          59.2362397
        ]
      }
    },
    {
      "type": "Feature",
      "id": "node/340338",
      "properties": {
        "name": "Hallsberg",
        "public_transport": "stop_position",
        "railway": "stop",
        "railway:track_ref": "2",
        "ref": "Hpbg",
        "train": "yes",
        "id": "node/340338"
      },
      "geometry": {
        "type": "Point",
        "coordinates": [
          15.1086225,
          59.0666618
        ]
      }
    },
    {
      "type": "Feature",
      "id": "node/429939",
      "properties": {
        "name": "Motala C",
        "public_transport": "stop_position",
        "railway": "stop",
        "railway:track_ref": "1",
        "ref": "Mot",
        "train": "yes",
        "id": "node/429939"
      },
      "geometry": {
        "type": "Point",
        "coordinates": [
          15.0484072,
          58.5376492
        ]
      }
    },
    {
      "type": "Feature",
      "id": "node/433445",
      "properties": {
        "name": "Gnesta",
        "public_transport": "stop_position",
        "railway": "stop",
        "ref": "Gn",
        "train": "yes",
        "id": "node/433445"
      },
      "geometry": {
        "type": "Point",
        "coordinates": [
          17.3125489,
          59.0486637
        ]
      }
    },
    {
      "type": "Feature",
      "id": "node/433498",
      "properties": {
        "name": "Mölnbo",
        "public_transport": "stop_position",
        "railway": "stop",
        "railway:track_ref": "2",
        "ref": "Mö",
        "train": "yes",
        "id": "node/433498"
      },
      "geometry": {
        "type": "Point",
        "coordinates": [
          17.4190374,
          59.04759
        ]
      }
    },
    {
      "type": "Feature",
      "id": "node/435970",
      "properties": {
        "name": "Vikingstad",
        "public_transport": "stop_position",
        "railway": "stop",
        "railway:track_ref": "3",
        "ref": "Vsd",
        "train": "yes",
        "id": "node/435970"
      },
      "geometry": {
        "type": "Point",
        "coordinates": [
          15.4331929,
          58.3835597
        ]
      }
    },
    {
      "type": "Feature",
      "id": "node/625101",
      "properties": {
        "name": "Mjölby",
        "public_transport": "stop_position",
        "railway": "stop",
        "railway:track_ref": "1",
        "ref": "My",
        "train": "yes",
        "id": "node/625101"
      },
      "geometry": {
        "type": "Point",
        "coordinates": [
          15.1321668,
          58.3228226
        ]
      }
    },
    {
      "type": "Feature",
      "id": "node/20698063",
      "properties": {
        "name": "Falköping C",
        "public_transport": "stop_position",
        "railway": "stop",
        "railway:track_ref": "3",
        "ref": "F",
        "train": "yes",
        "uic_name": "Falköping C",
        "uic_ref": "7400060",
        "id": "node/20698063"
      },
      "geometry": {
        "type": "Point",
        "coordinates": [
          13.5517026,
          58.1755562
        ]
      }
    },
    {
      "type": "Feature",
      "id": "node/20832302",
      "properties": {
        "name": "Skövde C",
        "public_transport": "stop_position",
        "railway": "stop",
        "railway:track_ref": "1",
        "ref": "Sk",
        "train": "yes",
        "wheelchair": "yes",
        "id": "node/20832302"
      },
      "geometry": {
        "type": "Point",
        "coordinates": [
          13.852244,
          58.3895598
        ]
      }
    },
    {
      "type": "Feature",
      "id": "node/20930707",
      "properties": {
        "name": "Floby",
        "public_transport": "stop_position",
        "railway": "stop",
        "railway:ref": "Fby",
        "railway:track_ref": "3",
        "ref": "Fby",
        "train": "yes",
        "uic_name": "Floby",
        "uic_ref": "7400036",
        "id": "node/20930707"
      },
      "geometry": {
        "type": "Point",
        "coordinates": [
          13.3350654,
          58.1392186
        ]
      }
    },
    {
      "type": "Feature",
      "id": "node/20930838",
      "properties": {
        "name": "Herrljunga",
        "public_transport": "stop_position",
        "railway": "stop",
        "railway:ref": "Hr",
        "railway:track_ref": "5",
        "train": "yes",
        "uic_name": "Herrljunga",
        "uic_ref": "7400040",
        "id": "node/20930838"
      },
      "geometry": {
        "type": "Point",
        "coordinates": [
          13.0200799,
          58.0790105
        ]
      }
    },
    {
      "type": "Feature",
      "id": "node/20936362",
      "properties": {
        "name": "Ytterby station",
        "network": "Västtrafik",
        "public_transport": "stop_position",
        "railway": "stop",
        "ref": "Yb",
        "train": "yes",
        "id": "node/20936362"
      },
      "geometry": {
        "type": "Point",
        "coordinates": [
          11.9173229,
          57.8620957
        ]
      }
    },
    {
      "type": "Feature",
      "id": "node/20937355",
      "properties": {
        "name": "Kode station",
        "network": "Västtrafik",
        "public_transport": "stop_position",
        "railway": "stop",
        "ref": "Kde",
        "train": "yes",
        "id": "node/20937355"
      },
      "geometry": {
        "type": "Point",
        "coordinates": [
          11.8509659,
          57.9443346
        ]
      }
    },
    {
      "type": "Feature",
      "id": "node/20937375",
      "properties": {
        "name": "Stora Höga station",
        "network": "Västtrafik",
        "public_transport": "stop_position",
        "railway": "stop",
        "ref": "Sth",
        "train": "yes",
        "id": "node/20937375"
      },
      "geometry": {
        "type": "Point",
        "coordinates": [
          11.8361968,
          58.0194955
        ]
      }
    },
    {
      "type": "Feature",
      "id": "node/20937400",
      "properties": {
        "name": "Stenungsunds station",
        "network": "Västtrafik",
        "public_transport": "stop_position",
        "railway": "stop",
        "ref": "Snu",
        "train": "yes",
        "id": "node/20937400"
      },
      "geometry": {
        "type": "Point",
        "coordinates": [
          11.8247475,
          58.0728783
        ]
      }
    },
    {
      "type": "Feature",
      "id": "node/20937418",
      "properties": {
        "name": "Svenshögens station",
        "network": "Västtrafik",
        "public_transport": "stop_position",
        "railway": "stop",
        "ref": "Svg",
        "train": "yes",
        "id": "node/20937418"
      },
      "geometry": {
        "type": "Point",
        "coordinates": [
          11.9360311,
          58.1448536
        ]
      }
    },
    {
      "type": "Feature",
      "id": "node/20937444",
      "properties": {
        "name": "Ljungskile station",
        "network": "Västtrafik",
        "public_transport": "stop_position",
        "railway": "stop",
        "ref": "Lj",
        "train": "yes",
        "id": "node/20937444"
      },
      "geometry": {
        "type": "Point",
        "coordinates": [
          11.9211027,
          58.224439
        ]
      }
    },
    {
      "type": "Feature",
      "id": "node/20937524",
      "properties": {
        "name": "Uddevalla Central",
        "network": "Västtrafik",
        "public_transport": "stop_position",
        "railway": "stop",
        "ref": "Uv",
        "short_name": "Uddevalla C",
        "train": "yes",
        "id": "node/20937524"
      },
      "geometry": {
        "type": "Point",
        "coordinates": [
          11.9237896,
          58.3541105
        ]
      }
    },
    {
      "type": "Feature",
      "id": "node/20937798",
      "properties": {
        "name": "Vänersborg C",
        "public_transport": "stop_position",
        "railway": "stop",
        "ref": "Vg",
        "train": "yes",
        "wikidata": "Q10717356",
        "id": "node/20937798"
      },
      "geometry": {
        "type": "Point",
        "coordinates": [
          12.3178481,
          58.3776917
        ]
      }
    },
    {
      "type": "Feature",
      "id": "node/20937815",
      "properties": {
        "name": "Vargön",
        "public_transport": "stop_position",
        "railway": "stop",
        "ref": "Vag",
        "train": "yes",
        "wikidata": "Q19979063",
        "id": "node/20937815"
      },
      "geometry": {
        "type": "Point",
        "coordinates": [
          12.3913637,
          58.3596788
        ]
      }
    },
    {
      "type": "Feature",
      "id": "node/20937877",
      "properties": {
        "name": "Vara",
        "public_transport": "stop_position",
        "railway": "stop",
        "ref": "Vaa",
        "train": "yes",
        "id": "node/20937877"
      },
      "geometry": {
        "type": "Point",
        "coordinates": [
          12.9513541,
          58.261089
        ]
      }
    },
    {
      "type": "Feature",
      "id": "node/20937886",
      "properties": {
        "name": "Vedum",
        "public_transport": "stop_position",
        "railway": "stop",
        "ref": "Ved",
        "train": "yes",
        "wikidata": "Q29362763",
        "id": "node/20937886"
      },
      "geometry": {
        "type": "Point",
        "coordinates": [
          12.9987095,
          58.1692836
        ]
      }
    },
    {
      "type": "Feature",
      "id": "node/21317653",
      "properties": {
        "name": "Borås C",
        "public_transport": "stop_position",
        "railway": "stop",
        "railway:track_ref": "3",
        "ref": "Bs",
        "short_name": "Borås C",
        "train": "yes",
        "id": "node/21317653"
      },
      "geometry": {
        "type": "Point",
        "coordinates": [
          12.9315211,
          57.7207331
        ]
      }
    },
    {
      "type": "Feature",
      "id": "node/21317667",
      "properties": {
        "name": "Knalleland",
        "public_transport": "stop_position",
        "railway": "stop",
        "ref": "Knl",
        "train": "yes",
        "id": "node/21317667"
      },
      "geometry": {
        "type": "Point",
        "coordinates": [
          12.9426305,
          57.7340231
        ]
      }
    },
    {
      "type": "Feature",
      "id": "node/21317749",
      "properties": {
        "name": "Fristad",
        "public_transport": "stop_position",
        "railway": "stop",
        "ref": "Fra",
        "train": "yes",
        "id": "node/21317749"
      },
      "geometry": {
        "type": "Point",
        "coordinates": [
          13.0084455,
          57.827109
        ]
      }
    },
    {
      "type": "Feature",
      "id": "node/21317777",
      "properties": {
        "name": "Borgstena",
        "public_transport": "stop_position",
        "railway": "stop",
        "ref": "Boa",
        "train": "yes",
        "id": "node/21317777"
      },
      "geometry": {
        "type": "Point",
        "coordinates": [
          13.0148863,
          57.8831346
        ]
      }
    },
    {
      "type": "Feature",
      "id": "node/21317785",
      "properties": {
        "name": "Mollaryd",
        "public_transport": "stop_position",
        "railway": "stop",
        "ref": "Moy",
        "train": "yes",
        "id": "node/21317785"
      },
      "geometry": {
        "type": "Point",
        "coordinates": [
          13.0226869,
          57.9065398
        ]
      }
    },
    {
      "type": "Feature",
      "id": "node/21317804",
      "properties": {
        "name": "Torpåkra",
        "public_transport": "stop_position",
        "railway": "stop",
        "ref": "Top",
        "train": "yes",
        "id": "node/21317804"
      },
      "geometry": {
        "type": "Point",
        "coordinates": [
          13.0295997,
          57.9408433
        ]
      }
    },
    {
      "type": "Feature",
      "id": "node/21317818",
      "properties": {
        "name": "Ljung",
        "public_transport": "stop_position",
        "railway": "stop",
        "ref": "Lju",
        "train": "yes",
        "wikidata": "Q29365538",
        "id": "node/21317818"
      },
      "geometry": {
        "type": "Point",
        "coordinates": [
          13.0533374,
          57.9865618
        ]
      }
    },
    {
      "type": "Feature",
      "id": "node/21319417",
      "properties": {
        "name": "Sandared",
        "public_transport": "stop_position",
        "railway": "stop",
        "ref": "Sae",
        "train": "yes",
        "id": "node/21319417"
      },
      "geometry": {
        "type": "Point",
        "coordinates": [
          12.7916178,
          57.7096305
        ]
      }
    },
    {
      "type": "Feature",
      "id": "node/21372317",
      "properties": {
        "name": "Mölnlycke",
        "public_transport": "stop_position",
        "railway": "stop",
        "ref": "Myk",
        "train": "yes",
        "wheelchair": "yes",
        "id": "node/21372317"
      },
      "geometry": {
        "type": "Point",
        "coordinates": [
          12.1178977,
          57.6568658
        ]
      }
    },
    {
      "type": "Feature",
      "id": "node/21372445",
      "properties": {
        "name": "Hindås",
        "public_transport": "stop_position",
        "railway": "stop",
        "ref": "Hås",
        "train": "yes",
        "id": "node/21372445"
      },
      "geometry": {
        "type": "Point",
        "coordinates": [
          12.4511065,
          57.7044416
        ]
      }
    },
    {
      "type": "Feature",
      "id": "node/21375314",
      "properties": {
        "name": "Rävlanda",
        "public_transport": "station",
        "railway": "station",
        "ref": "Rd",
        "id": "node/21375314"
      },
      "geometry": {
        "type": "Point",
        "coordinates": [
          12.5004708,
          57.6543484
        ]
      }
    },
    {
      "type": "Feature",
      "id": "node/21377247",
      "properties": {
        "name": "Bollebygd",
        "public_transport": "stop_position",
        "railway": "stop",
        "ref": "Boy",
        "train": "yes",
        "id": "node/21377247"
      },
      "geometry": {
        "type": "Point",
        "coordinates": [
          12.5705158,
          57.6675975
        ]
      }
    },
    {
      "type": "Feature",
      "id": "node/21491109",
      "properties": {
        "name": "Laxå",
        "public_transport": "stop_position",
        "railway": "station",
        "railway:track_ref": "1",
        "ref": "Lå",
        "train": "yes",
        "id": "node/21491109"
      },
      "geometry": {
        "type": "Point",
        "coordinates": [
          14.6153578,
          58.9890657
        ]
      }
    },
    {
      "type": "Feature",
      "id": "node/21491141",
      "properties": {
        "name": "Örebro C",
        "public_transport": "stop_position",
        "railway": "stop",
        "railway:track_ref": "1a",
        "ref": "Ör",
        "train": "yes",
        "id": "node/21491141"
      },
      "geometry": {
        "type": "Point",
        "coordinates": [
          15.2104404,
          59.2775752
        ]
      }
    },
    {
      "type": "Feature",
      "id": "node/21495528",
      "properties": {
        "name": "Storvik",
        "public_transport": "stop_position",
        "railway": "station",
        "railway:track_ref": "4",
        "ref": "Sv",
        "train": "yes",
        "id": "node/21495528"
      },
      "geometry": {
        "type": "Point",
        "coordinates": [
          16.5350768,
          60.5823636
        ]
      }
    },
    {
      "type": "Feature",
      "id": "node/21527458",
      "properties": {
        "name": "Iggesund",
        "public_transport": "stop_position",
        "railway": "stop",
        "ref": "Id",
        "train": "yes",
        "id": "node/21527458"
      },
      "geometry": {
        "type": "Point",
        "coordinates": [
          17.0815422,
          61.6450493
        ]
      }
    },
    {
      "type": "Feature",
      "id": "node/21528227",
      "properties": {
        "name": "Ljusne",
        "public_transport": "stop_position",
        "railway": "stop",
        "ref": "Lse",
        "train": "yes",
        "id": "node/21528227"
      },
      "geometry": {
        "type": "Point",
        "coordinates": [
          17.1118739,
          61.212527
        ]
      }
    },
    {
      "type": "Feature",
      "id": "node/21619326",
      "properties": {
        "name": "Arboga",
        "public_transport": "stop_position",
        "railway": "stop",
        "train": "yes",
        "id": "node/21619326"
      },
      "geometry": {
        "type": "Point",
        "coordinates": [
          15.8412291,
          59.397164
        ]
      }
    },
    {
      "type": "Feature",
      "id": "node/21619371",
      "properties": {
        "name": "Frövi",
        "public_transport": "stop_position",
        "railway": "station",
        "railway:track_ref": "1",
        "ref": "Fv",
        "train": "yes",
        "wikipedia": "sv:Frövi station",
        "id": "node/21619371"
      },
      "geometry": {
        "type": "Point",
        "coordinates": [
          15.3632403,
          59.4675863
        ]
      }
    },
    {
      "type": "Feature",
      "id": "node/21619981",
      "properties": {
        "name": "Kolbäck",
        "public_transport": "stop_position",
        "railway": "station",
        "ref": "Kbä",
        "train": "yes",
        "id": "node/21619981"
      },
      "geometry": {
        "type": "Point",
        "coordinates": [
          16.2334774,
          59.564249
        ]
      }
    },
    {
      "type": "Feature",
      "id": "node/21620113",
      "properties": {
        "name": "Skinnskatteberg",
        "public_transport": "stop_position",
        "railway": "station",
        "ref": "Skb",
        "train": "yes",
        "wikidata": "Q10670212",
        "wikipedia": "sv:Skinnskattebergs station",
        "id": "node/21620113"
      },
      "geometry": {
        "type": "Point",
        "coordinates": [
          15.6918481,
          59.8326968
        ]
      }
    },
    {
      "type": "Feature",
      "id": "node/21620756",
      "properties": {
        "name": "Fagersta C",
        "public_transport": "stop_position",
        "railway": "station",
        "ref": "Fgc",
        "train": "yes",
        "wikipedia": "sv:Fagersta centralstation",
        "id": "node/21620756"
      },
      "geometry": {
        "type": "Point",
        "coordinates": [
          15.8160482,
          59.9905785
        ]
      }
    },
    {
      "type": "Feature",
      "id": "node/21620999",
      "properties": {
        "name": "Avesta Krylbo",
        "public_transport": "stop_position",
        "railway": "stop",
        "ref": "Avky",
        "train": "yes",
        "id": "node/21620999"
      },
      "geometry": {
        "type": "Point",
        "coordinates": [
          16.2164392,
          60.129189
        ]
      }
    },
    {
      "type": "Feature",
      "id": "node/21621856",
      "properties": {
        "name": "Fors",
        "public_transport": "stop_position",
        "railway": "station",
        "ref": "Fs",
        "train": "yes",
        "id": "node/21621856"
      },
      "geometry": {
        "type": "Point",
        "coordinates": [
          16.3144915,
          60.2084371
        ]
      }
    },
    {
      "type": "Feature",
      "id": "node/21621898",
      "properties": {
        "railway": "halt",
        "id": "node/21621898"
      },
      "geometry": {
        "type": "Point",
        "coordinates": [
          16.3637343,
          60.2592538
        ]
      }
    },
    {
      "type": "Feature",
      "id": "node/21621926",
      "properties": {
        "name": "Horndals bruk",
        "railway": "station",
        "ref": "Hlr",
        "id": "node/21621926"
      },
      "geometry": {
        "type": "Point",
        "coordinates": [
          16.4134944,
          60.2961853
        ]
      }
    },
    {
      "type": "Feature",
      "id": "node/21622007",
      "properties": {
        "railway": "halt",
        "id": "node/21622007"
      },
      "geometry": {
        "type": "Point",
        "coordinates": [
          16.4530331,
          60.4440827
        ]
      }
    },
    {
      "type": "Feature",
      "id": "node/21622022",
      "properties": {
        "name": "Torsåker",
        "public_transport": "stop_position",
        "railway": "station",
        "ref": "Tså",
        "train": "yes",
        "id": "node/21622022"
      },
      "geometry": {
        "type": "Point",
        "coordinates": [
          16.4884658,
          60.5135277
        ]
      }
    },
    {
      "type": "Feature",
      "id": "node/22470885",
      "properties": {
        "name": "Bålsta",
        "public_transport": "stop_position",
        "railway": "station",
        "ref": "Bål",
        "sl_stop_id": "9710",
        "train": "yes",
        "wikidata": "Q15580475",
        "wikipedia": "sv:Bålsta station",
        "id": "node/22470885"
      },
      "geometry": {
        "type": "Point",
        "coordinates": [
          17.5328901,
          59.5687344
        ]
      }
    },
    {
      "type": "Feature",
      "id": "node/22470917",
      "properties": {
        "name": "Toresta",
        "railway": "stop",
        "railway:ref": "Tot",
        "id": "node/22470917"
      },
      "geometry": {
        "type": "Point",
        "coordinates": [
          17.5745203,
          59.5335963
        ]
      }
    },
    {
      "type": "Feature",
      "id": "node/22471106",
      "properties": {
        "name": "Kallhäll",
        "network": "SL",
        "public_transport": "stop_position",
        "railway": "stop",
        "railway:ref": "Khä",
        "sl_stop_id": "9701",
        "train": "yes",
        "id": "node/22471106"
      },
      "geometry": {
        "type": "Point",
        "coordinates": [
          17.8065588,
          59.4524084
        ]
      }
    },
    {
      "type": "Feature",
      "id": "node/25174004",
      "properties": {
        "name": "Hova",
        "public_transport": "stop_position",
        "railway": "stop",
        "ref": "Hova",
        "train": "yes",
        "wikidata": "Q29556441",
        "id": "node/25174004"
      },
      "geometry": {
        "type": "Point",
        "coordinates": [
          14.2152338,
          58.8547957
        ]
      }
    },
    {
      "type": "Feature",
      "id": "node/25174050",
      "properties": {
        "name": "Lyrestad",
        "public_transport": "stop_position",
        "railway": "stop",
        "ref": "Lyd",
        "train": "yes",
        "id": "node/25174050"
      },
      "geometry": {
        "type": "Point",
        "coordinates": [
          14.0570931,
          58.8051201
        ]
      }
    },
    {
      "type": "Feature",
      "id": "node/25589138",
      "properties": {
        "name": "Malmö C",
        "public_transport": "station",
        "railway": "station",
        "railway:ref": "M",
        "railway:track_ref": "8",
        "uic_ref": "7400003",
        "website": "https://www.dinstation.se/malmo-centralstation/",
        "wheelchair": "limited",
        "wikidata": "Q575797",
        "wikipedia": "sv:Malmö centralstation",
        "id": "node/25589138"
      },
      "geometry": {
        "type": "Point",
        "coordinates": [
          13.0006612,
          55.6091374
        ]
      }
    },
    {
      "type": "Feature",
      "id": "node/25642888",
      "properties": {
        "name": "Flemingsberg",
        "public_transport": "stop_position",
        "railway": "stop",
        "railway:track_ref": "6",
        "ref": "Flb",
        "train": "yes",
        "id": "node/25642888"
      },
      "geometry": {
        "type": "Point",
        "coordinates": [
          17.9470051,
          59.2186953
        ]
      }
    },
    {
      "type": "Feature",
      "id": "node/25745959",
      "properties": {
        "name": "Mellerud",
        "railway": "station",
        "ref": "Ml",
        "wikidata": "Q15882312",
        "id": "node/25745959"
      },
      "geometry": {
        "type": "Point",
        "coordinates": [
          12.464846,
          58.7019895
        ]
      }
    },
    {
      "type": "Feature",
      "id": "node/25750094",
      "properties": {
        "name": "Flen",
        "public_transport": "stop_position",
        "railway": "stop",
        "ref": "Fle",
        "train": "yes",
        "id": "node/25750094"
      },
      "geometry": {
        "type": "Point",
        "coordinates": [
          16.5873529,
          59.0572545
        ]
      }
    },
    {
      "type": "Feature",
      "id": "node/25947507",
      "properties": {
        "name": "Rosersberg",
        "network": "SL",
        "public_transport": "stop_position",
        "railway": "stop",
        "railway:ref": "Rs",
        "route_ref": "J41;J41X;J42X",
        "sl_stop_id": "9501",
        "train": "yes",
        "wikidata": "Q17410197",
        "wikipedia": "sv:Rosersberg (pendeltågsstation)",
        "id": "node/25947507"
      },
      "geometry": {
        "type": "Point",
        "coordinates": [
          17.8801028,
          59.5837798
        ]
      }
    },
    {
      "type": "Feature",
      "id": "node/25947919",
      "properties": {
        "name": "Rotebro",
        "network": "SL",
        "network:wikidata": "Q970452",
        "network:wikipedia": "sv:Storstockholms Lokaltrafik",
        "public_transport": "station",
        "railway": "station",
        "railway:ref": "R",
        "sl_stop_id": "9503",
        "toilets:wheelchair": "no",
        "wheelchair": "limited",
        "wikidata": "Q10657250",
        "wikipedia": "sv:Rotebro (pendeltågsstation)",
        "id": "node/25947919"
      },
      "geometry": {
        "type": "Point",
        "coordinates": [
          17.9146441,
          59.4758766
        ]
      }
    },
    {
      "type": "Feature",
      "id": "node/25948183",
      "properties": {
        "alt_name": "Stockholm C",
        "description": "Stockholm's main railway station",
        "name": "Stockholms central",
        "public_transport": "station",
        "railway": "station",
        "railway:ref": "Cst",
        "sl_stop_id": "9000",
        "start_date": "1871-07-18",
        "uic_ref": "7400001",
        "wheelchair": "yes",
        "wikidata": "Q54315",
        "wikipedia": "sv:Stockholms centralstation",
        "id": "node/25948183"
      },
      "geometry": {
        "type": "Point",
        "coordinates": [
          18.0575007,
          59.3298746
        ]
      }
    },
    {
      "type": "Feature",
      "id": "node/27191246",
      "properties": {
        "name": "Munkedal station",
        "network": "Västtrafik",
        "public_transport": "stop_position",
        "railway": "stop",
        "ref": "Mkl",
        "train": "yes",
        "id": "node/27191246"
      },
      "geometry": {
        "type": "Point",
        "coordinates": [
          11.6781139,
          58.4647645
        ]
      }
    },
    {
      "type": "Feature",
      "id": "node/27202857",
      "properties": {
        "name": "Dingle station",
        "network": "Västtrafik",
        "public_transport": "stop_position",
        "railway": "stop",
        "railway:track_ref": "3",
        "ref": "Dl",
        "train": "yes",
        "wikipedia": "sv:Dingle station",
        "id": "node/27202857"
      },
      "geometry": {
        "type": "Point",
        "coordinates": [
          11.579031,
          58.5296288
        ]
      }
    },
    {
      "type": "Feature",
      "id": "node/27202920",
      "properties": {
        "name": "Hällevadsholm station",
        "network": "Västtrafik",
        "public_transport": "stop_position",
        "railway": "stop",
        "ref": "Hlv",
        "train": "yes",
        "id": "node/27202920"
      },
      "geometry": {
        "type": "Point",
        "coordinates": [
          11.5348855,
          58.5800095
        ]
      }
    },
    {
      "type": "Feature",
      "id": "node/27202992",
      "properties": {
        "name": "Rabbalshede station",
        "network": "Västtrafik",
        "public_transport": "stop_position",
        "railway": "stop",
        "ref": "Rbh",
        "train": "yes",
        "wikidata": "Q29540677",
        "id": "node/27202992"
      },
      "geometry": {
        "type": "Point",
        "coordinates": [
          11.4707082,
          58.6101764
        ]
      }
    },
    {
      "type": "Feature",
      "id": "node/27203502",
      "properties": {
        "name": "Tanum station",
        "network": "Västtrafik",
        "public_transport": "stop_position",
        "railway": "stop",
        "ref": "Tnu",
        "train": "yes",
        "wikidata": "Q29538994",
        "id": "node/27203502"
      },
      "geometry": {
        "type": "Point",
        "coordinates": [
          11.2955599,
          58.7136164
        ]
      }
    },
    {
      "type": "Feature",
      "id": "node/27203757",
      "properties": {
        "alt_name": "Överby station",
        "name": "Överby",
        "network": "Västtrafik",
        "public_transport": "stop_position",
        "railway": "stop",
        "ref": "Övb",
        "train": "yes",
        "wikidata": "Q29539242",
        "id": "node/27203757"
      },
      "geometry": {
        "type": "Point",
        "coordinates": [
          11.2599953,
          58.8433975
        ]
      }
    },
    {
      "type": "Feature",
      "id": "node/27204269",
      "properties": {
        "local_ref": "2",
        "name": "Skee station",
        "network": "Västtrafik",
        "public_transport": "stop_position",
        "railway": "stop",
        "railway:ref": "Ske",
        "railway:track_ref": "2",
        "ref": "Ske",
        "train": "yes",
        "id": "node/27204269"
      },
      "geometry": {
        "type": "Point",
        "coordinates": [
          11.2622999,
          58.9229277
        ]
      }
    },
    {
      "type": "Feature",
      "id": "node/27204334",
      "properties": {
        "name": "Strömstad station",
        "network": "Västtrafik",
        "public_transport": "stop_position",
        "railway": "stop",
        "ref": "Smd",
        "train": "yes",
        "wheelchair": "yes",
        "id": "node/27204334"
      },
      "geometry": {
        "type": "Point",
        "coordinates": [
          11.1731946,
          58.9362813
        ]
      }
    },
    {
      "type": "Feature",
      "id": "node/27368381",
      "properties": {
        "name": "Lund centralstation",
        "public_transport": "stop_position",
        "railway": "stop",
        "railway:track_ref": "4",
        "ref": "Lu",
        "short_name": "Lund C",
        "train": "yes",
        "id": "node/27368381"
      },
      "geometry": {
        "type": "Point",
        "coordinates": [
          13.1863454,
          55.7067655
        ]
      }
    },
    {
      "type": "Feature",
      "id": "node/27377534",
      "properties": {
        "name": "Kristianstad",
        "public_transport": "stop_position",
        "railway": "station",
        "ref": "Cr",
        "train": "yes",
        "wheelchair": "yes",
        "wikidata": "Q4993166",
        "wikipedia": "sv:Kristianstads centralstation",
        "id": "node/27377534"
      },
      "geometry": {
        "type": "Point",
        "coordinates": [
          14.1510572,
          56.0317702
        ]
      }
    },
    {
      "type": "Feature",
      "id": "node/27475864",
      "properties": {
        "name": "Torved",
        "public_transport": "stop_position",
        "railway": "stop",
        "ref": "Tvd",
        "train": "yes",
        "id": "node/27475864"
      },
      "geometry": {
        "type": "Point",
        "coordinates": [
          14.0988862,
          58.8240143
        ]
      }
    },
    {
      "type": "Feature",
      "id": "node/27532800",
      "properties": {
        "name": "Katrineholm C",
        "public_transport": "stop_position",
        "railway": "stop",
        "railway:track_ref": "1",
        "ref": "K",
        "train": "yes",
        "id": "node/27532800"
      },
      "geometry": {
        "type": "Point",
        "coordinates": [
          16.2082581,
          58.9967029
        ]
      }
    },
    {
      "type": "Feature",
      "id": "node/27594731",
      "properties": {
        "name": "Jakobsberg",
        "public_transport": "station",
        "railway": "station",
        "railway:ref": "Jkb",
        "sl_stop_id": "9702",
        "wheelchair": "yes",
        "wikidata": "Q10539298",
        "wikipedia": "sv:Jakobsberg (pendeltågsstation)",
        "id": "node/27594731"
      },
      "geometry": {
        "type": "Point",
        "coordinates": [
          17.8329911,
          59.4238735
        ]
      }
    },
    {
      "type": "Feature",
      "id": "node/27594767",
      "properties": {
        "name": "Spånga",
        "public_transport": "station",
        "railway": "station",
        "railway:ref": "Spå",
        "sl_stop_id": "9704",
        "wikidata": "Q10676718",
        "wikipedia": "sv:Spånga station",
        "id": "node/27594767"
      },
      "geometry": {
        "type": "Point",
        "coordinates": [
          17.8981821,
          59.3836259
        ]
      }
    },
    {
      "type": "Feature",
      "id": "node/27595452",
      "properties": {
        "layer": "-2",
        "local_ref": "3",
        "name": "Stockholms södra",
        "name:fi": "Tukholma etelä",
        "name:sv": "Stockholms södra",
        "public_transport": "stop_position",
        "railway": "stop",
        "ref": "Sst",
        "source": "yahoo + local knowledge",
        "train": "yes",
        "id": "node/27595452"
      },
      "geometry": {
        "type": "Point",
        "coordinates": [
          18.0618421,
          59.3135616
        ]
      }
    },
    {
      "type": "Feature",
      "id": "node/28298929",
      "properties": {
        "name": "Åtvidaberg",
        "public_transport": "stop_position",
        "railway": "stop",
        "ref": "Åvg",
        "train": "yes",
        "id": "node/28298929"
      },
      "geometry": {
        "type": "Point",
        "coordinates": [
          16.0022777,
          58.2035684
        ]
      }
    },
    {
      "type": "Feature",
      "id": "node/28298975",
      "properties": {
        "name": "Falerum",
        "public_transport": "stop_position",
        "railway": "stop",
        "railway:track_ref": "2",
        "ref": "Fal",
        "train": "yes",
        "id": "node/28298975"
      },
      "geometry": {
        "type": "Point",
        "coordinates": [
          16.2070139,
          58.1438906
        ]
      }
    },
    {
      "type": "Feature",
      "id": "node/28299052",
      "properties": {
        "name": "Överums bruk",
        "public_transport": "stop_position",
        "railway": "halt",
        "railway:ref": "Övmb",
        "train": "yes",
        "id": "node/28299052"
      },
      "geometry": {
        "type": "Point",
        "coordinates": [
          16.3194264,
          57.9898027
        ]
      }
    },
    {
      "type": "Feature",
      "id": "node/28299225",
      "properties": {
        "name": "Västervik",
        "public_transport": "stop_position",
        "railway": "stop",
        "ref": "Vk",
        "train": "yes",
        "id": "node/28299225"
      },
      "geometry": {
        "type": "Point",
        "coordinates": [
          16.6427297,
          57.7555746
        ]
      }
    },
    {
      "type": "Feature",
      "id": "node/28301766",
      "properties": {
        "name": "Gamleby",
        "public_transport": "stop_position",
        "railway": "stop",
        "ref": "Gal",
        "train": "yes",
        "id": "node/28301766"
      },
      "geometry": {
        "type": "Point",
        "coordinates": [
          16.4101185,
          57.8967267
        ]
      }
    },
    {
      "type": "Feature",
      "id": "node/28341390",
      "properties": {
        "name": "Österäng",
        "public_transport": "stop_position",
        "railway": "stop",
        "ref": "Öäg",
        "train": "yes",
        "id": "node/28341390"
      },
      "geometry": {
        "type": "Point",
        "coordinates": [
          13.5599619,
          58.6341181
        ]
      }
    },
    {
      "type": "Feature",
      "id": "node/28341409",
      "properties": {
        "name": "Forshem",
        "public_transport": "stop_position",
        "railway": "stop",
        "ref": "Fhm",
        "train": "yes",
        "id": "node/28341409"
      },
      "geometry": {
        "type": "Point",
        "coordinates": [
          13.4914528,
          58.61803
        ]
      }
    },
    {
      "type": "Feature",
      "id": "node/28341435",
      "properties": {
        "name": "Hällekis",
        "public_transport": "stop_position",
        "railway": "stop",
        "ref": "Hlk",
        "train": "yes",
        "id": "node/28341435"
      },
      "geometry": {
        "type": "Point",
        "coordinates": [
          13.4329998,
          58.6300723
        ]
      }
    },
    {
      "type": "Feature",
      "id": "node/28341512",
      "properties": {
        "name": "Källby",
        "public_transport": "stop_position",
        "railway": "stop",
        "ref": "Kll",
        "train": "yes",
        "id": "node/28341512"
      },
      "geometry": {
        "type": "Point",
        "coordinates": [
          13.3018937,
          58.510616
        ]
      }
    },
    {
      "type": "Feature",
      "id": "node/28341541",
      "properties": {
        "importance": "regional",
        "name": "Lidköping",
        "public_transport": "stop_position",
        "railway": "stop",
        "railway:track_ref": "1",
        "ref": "Lkp",
        "train": "yes",
        "id": "node/28341541"
      },
      "geometry": {
        "type": "Point",
        "coordinates": [
          13.1644276,
          58.5045807
        ]
      }
    },
    {
      "type": "Feature",
      "id": "node/28341550",
      "properties": {
        "name": "Framnäs city",
        "public_transport": "stop_position",
        "railway": "stop",
        "ref": "Fc",
        "train": "yes",
        "id": "node/28341550"
      },
      "geometry": {
        "type": "Point",
        "coordinates": [
          13.1472428,
          58.5077017
        ]
      }
    },
    {
      "type": "Feature",
      "id": "node/28343152",
      "properties": {
        "name": "Järpås",
        "public_transport": "stop_position",
        "railway": "stop",
        "ref": "Jps",
        "train": "yes",
        "id": "node/28343152"
      },
      "geometry": {
        "type": "Point",
        "coordinates": [
          12.970077,
          58.3790882
        ]
      }
    },
    {
      "type": "Feature",
      "id": "node/28343158",
      "properties": {
        "name": "Stora Levene",
        "public_transport": "stop_position",
        "railway": "stop",
        "ref": "Stlv",
        "train": "yes",
        "id": "node/28343158"
      },
      "geometry": {
        "type": "Point",
        "coordinates": [
          12.9258745,
          58.3260684
        ]
      }
    },
    {
      "type": "Feature",
      "id": "node/28346441",
      "properties": {
        "name": "Viskafors",
        "public_transport": "stop_position",
        "railway": "stop",
        "ref": "Vfo",
        "train": "yes",
        "id": "node/28346441"
      },
      "geometry": {
        "type": "Point",
        "coordinates": [
          12.8449514,
          57.6292064
        ]
      }
    },
    {
      "type": "Feature",
      "id": "node/28346550",
      "properties": {
        "name": "Fritsla station",
        "public_transport": "stop_position",
        "railway": "stop",
        "ref": "Frl",
        "train": "yes",
        "id": "node/28346550"
      },
      "geometry": {
        "type": "Point",
        "coordinates": [
          12.7897798,
          57.5577677
        ]
      }
    },
    {
      "type": "Feature",
      "id": "node/28346592",
      "properties": {
        "name": "Kinna",
        "public_transport": "stop_position",
        "railway": "stop",
        "ref": "Kin",
        "train": "yes",
        "id": "node/28346592"
      },
      "geometry": {
        "type": "Point",
        "coordinates": [
          12.6974628,
          57.5056693
        ]
      }
    },
    {
      "type": "Feature",
      "id": "node/29284154",
      "properties": {
        "name": "Mölndal",
        "name:technical": "Mölndals nedre",
        "public_transport": "stop_position",
        "railway": "stop",
        "railway:track_ref": "2",
        "ref": "Mdn",
        "train": "yes",
        "wheelchair": "yes",
        "wikipedia": "sv:Knutpunkt Mölndalsbro",
        "id": "node/29284154"
      },
      "geometry": {
        "type": "Point",
        "coordinates": [
          12.0188546,
          57.6559196
        ]
      }
    },
    {
      "type": "Feature",
      "id": "node/29284411",
      "properties": {
        "name": "Hede station",
        "name:technical": "Kungsbacka Hede",
        "public_transport": "stop_position",
        "railway": "stop",
        "railway:track_ref": "2",
        "ref": "Khe",
        "train": "yes",
        "wikipedia": "sv:Hede station",
        "id": "node/29284411"
      },
      "geometry": {
        "type": "Point",
        "coordinates": [
          12.0840859,
          57.513554
        ]
      }
    },
    {
      "type": "Feature",
      "id": "node/29284432",
      "properties": {
        "name": "Kungsbacka station",
        "public_transport": "stop_position",
        "railway": "stop",
        "railway:track_ref": "2",
        "ref": "Kb",
        "train": "yes",
        "id": "node/29284432"
      },
      "geometry": {
        "type": "Point",
        "coordinates": [
          12.0799319,
          57.4902084
        ]
      }
    },
    {
      "type": "Feature",
      "id": "node/29624547",
      "properties": {
        "name": "Bäckebron",
        "railway": "station",
        "ref": "Bäb",
        "id": "node/29624547"
      },
      "geometry": {
        "type": "Point",
        "coordinates": [
          13.1661493,
          59.6615578
        ]
      }
    },
    {
      "type": "Feature",
      "id": "node/29624575",
      "properties": {
        "name": "Västra Ämtervik",
        "railway": "station",
        "ref": "Vät",
        "id": "node/29624575"
      },
      "geometry": {
        "type": "Point",
        "coordinates": [
          13.1470163,
          59.7279509
        ]
      }
    },
    {
      "type": "Feature",
      "id": "node/29625323",
      "properties": {
        "name": "Sunne",
        "public_transport": "stop_position",
        "railway": "station",
        "ref": "Sun",
        "train": "yes",
        "id": "node/29625323"
      },
      "geometry": {
        "type": "Point",
        "coordinates": [
          13.1490783,
          59.8349599
        ]
      }
    },
    {
      "type": "Feature",
      "id": "node/29625765",
      "properties": {
        "name": "Edsbjörke",
        "railway": "halt",
        "ref": "Ebk",
        "id": "node/29625765"
      },
      "geometry": {
        "type": "Point",
        "coordinates": [
          13.1709976,
          59.9012721
        ]
      }
    },
    {
      "type": "Feature",
      "id": "node/29625915",
      "properties": {
        "name": "Badabruk",
        "railway": "halt",
        "ref": "Bdb",
        "id": "node/29625915"
      },
      "geometry": {
        "type": "Point",
        "coordinates": [
          13.0959175,
          60.0622953
        ]
      }
    },
    {
      "type": "Feature",
      "id": "node/29626017",
      "properties": {
        "name": "Oleby",
        "railway": "halt",
        "ref": "Ol",
        "id": "node/29626017"
      },
      "geometry": {
        "type": "Point",
        "coordinates": [
          13.0385535,
          60.1298522
        ]
      }
    },
    {
      "type": "Feature",
      "id": "node/30439177",
      "properties": {
        "name": "Årsta",
        "public_transport": "stop_position",
        "railway": "halt",
        "ref": "Ås",
        "train": "yes",
        "id": "node/30439177"
      },
      "geometry": {
        "type": "Point",
        "coordinates": [
          17.7026765,
          59.864176
        ]
      }
    },
    {
      "type": "Feature",
      "id": "node/30690248",
      "properties": {
        "name": "Hälleforsnäs",
        "public_transport": "stop_position",
        "railway": "stop",
        "ref": "Hnä",
        "train": "yes",
        "id": "node/30690248"
      },
      "geometry": {
        "type": "Point",
        "coordinates": [
          16.503164,
          59.1619478
        ]
      }
    },
    {
      "type": "Feature",
      "id": "node/30690629",
      "properties": {
        "name": "Eskilstuna C",
        "public_transport": "stop_position",
        "railway": "stop",
        "train": "yes",
        "id": "node/30690629"
      },
      "geometry": {
        "type": "Point",
        "coordinates": [
          16.5057581,
          59.3693149
        ]
      }
    },
    {
      "type": "Feature",
      "id": "node/30692188",
      "properties": {
        "name": "Nykvarn",
        "public_transport": "stop_position",
        "railway": "stop",
        "ref": "Nkv",
        "train": "yes",
        "id": "node/30692188"
      },
      "geometry": {
        "type": "Point",
        "coordinates": [
          17.4318441,
          59.1788732
        ]
      }
    },
    {
      "type": "Feature",
      "id": "node/30692274",
      "properties": {
        "name": "Strängnäs",
        "public_transport": "stop_position",
        "railway": "stop",
        "ref": "Sgs",
        "train": "yes",
        "id": "node/30692274"
      },
      "geometry": {
        "type": "Point",
        "coordinates": [
          17.0281745,
          59.3703067
        ]
      }
    },
    {
      "type": "Feature",
      "id": "node/31493940",
      "properties": {
        "alt_name": "Östra station",
        "name": "Stockholms östra",
        "name:fi": "Tukholma itä",
        "name:sv": "Stockholms östra",
        "network": "SL",
        "platforms": "6",
        "public_transport": "station",
        "railway": "station",
        "railway:ref": "Öst",
        "ref": "Öst",
        "route_ref": "27;28;29",
        "sl_stop_id": "9600",
        "source": "yahoo",
        "station": "light_rail",
        "wheelchair": "yes",
        "wikidata": "Q54318",
        "wikipedia": "sv:Stockholms östra station",
        "id": "node/31493940"
      },
      "geometry": {
        "type": "Point",
        "coordinates": [
          18.0706402,
          59.3465554
        ]
      }
    },
    {
      "type": "Feature",
      "id": "node/31494656",
      "properties": {
        "name": "Tunagård",
        "network": "SL",
        "public_transport": "station",
        "railway": "station",
        "railway:ref": "Tug",
        "route_ref": "28",
        "sl_stop_id": "9661",
        "station": "light_rail",
        "train": "yes",
        "wikidata": "Q10706298",
        "wikipedia": "sv:Tunagård",
        "id": "node/31494656"
      },
      "geometry": {
        "type": "Point",
        "coordinates": [
          18.3073425,
          59.4691085
        ]
      }
    },
    {
      "type": "Feature",
      "id": "node/31494680",
      "properties": {
        "name": "Mörby",
        "network": "SL",
        "public_transport": "station",
        "railway": "station",
        "railway:ref": "Möb",
        "route_ref": "27;28;29",
        "sl_stop_id": "9638",
        "station": "light_rail",
        "wikidata": "Q6950357",
        "wikipedia": "sv:Mörby station",
        "id": "node/31494680"
      },
      "geometry": {
        "type": "Point",
        "coordinates": [
          18.0473115,
          59.3922177
        ]
      }
    },
    {
      "type": "Feature",
      "id": "node/31494694",
      "properties": {
        "name": "Djursholms Ösby",
        "network": "SL",
        "public_transport": "station",
        "railway": "station",
        "railway:ref": "Djö",
        "route_ref": "27;28;29",
        "sl_stop_id": "9637",
        "station": "light_rail",
        "wikidata": "Q1710912",
        "wikipedia": "sv:Djursholms Ösby",
        "id": "node/31494694"
      },
      "geometry": {
        "type": "Point",
        "coordinates": [
          18.0588547,
          59.3981659
        ]
      }
    },
    {
      "type": "Feature",
      "id": "node/31494703",
      "properties": {
        "name": "Bråvallavägen",
        "network": "SL",
        "public_transport": "station",
        "railway": "station",
        "railway:ref": "Bvv",
        "route_ref": "28",
        "sl_stop_id": "9636",
        "station": "light_rail",
        "wikidata": "Q26256555",
        "wikipedia": "sv:Bråvallavägen",
        "id": "node/31494703"
      },
      "geometry": {
        "type": "Point",
        "coordinates": [
          18.060485,
          59.4053485
        ]
      }
    },
    {
      "type": "Feature",
      "id": "node/31494737",
      "properties": {
        "name": "Enebyberg",
        "network": "SL",
        "platforms": "2",
        "public_transport": "station",
        "railway": "station",
        "railway:ref": "Enb",
        "route_ref": "28",
        "sl_stop_id": "9634",
        "station": "light_rail",
        "wikidata": "Q15477850",
        "id": "node/31494737"
      },
      "geometry": {
        "type": "Point",
        "coordinates": [
          18.0512506,
          59.425765
        ]
      }
    },
    {
      "type": "Feature",
      "id": "node/31494789",
      "properties": {
        "alt_name": "Ssu",
        "name": "Stocksund",
        "network": "SL",
        "public_transport": "station",
        "railway": "station",
        "railway:ref": "Ssu",
        "route_ref": "29",
        "sl_stop_id": "9639",
        "station": "light_rail",
        "wikidata": "Q15918151",
        "wikipedia": "sv:Stocksunds stationshus",
        "id": "node/31494789"
      },
      "geometry": {
        "type": "Point",
        "coordinates": [
          18.0437704,
          59.3848157
        ]
      }
    },
    {
      "type": "Feature",
      "id": "node/31495130",
      "properties": {
        "name": "Roslags Näsby",
        "network": "SL",
        "platforms": "3",
        "public_transport": "station",
        "railway": "station",
        "railway:ref": "Rnb",
        "route_ref": "27;28",
        "sl_stop_id": "9633",
        "station": "light_rail",
        "wheelchair": "yes",
        "wikidata": "Q10657100",
        "wikipedia": "sv:Roslags Näsby station",
        "id": "node/31495130"
      },
      "geometry": {
        "type": "Point",
        "coordinates": [
          18.0579594,
          59.4354907
        ]
      }
    },
    {
      "type": "Feature",
      "id": "node/31495484",
      "properties": {
        "name": "Viggbyholm",
        "network": "SL",
        "public_transport": "station",
        "railway": "station",
        "railway:ref": "Vbm",
        "route_ref": "28",
        "sl_stop_id": "9667",
        "station": "light_rail",
        "wheelchair": "yes",
        "wikidata": "Q15485135",
        "id": "node/31495484"
      },
      "geometry": {
        "type": "Point",
        "coordinates": [
          18.1043825,
          59.4492891
        ]
      }
    },
    {
      "type": "Feature",
      "id": "node/31495563",
      "properties": {
        "name": "Rydbo",
        "network": "SL",
        "public_transport": "station",
        "railway": "station",
        "railway:ref": "Rdb",
        "route_ref": "28",
        "sl_stop_id": "9665",
        "station": "light_rail",
        "wheelchair": "yes",
        "wikidata": "Q15486285",
        "id": "node/31495563"
      },
      "geometry": {
        "type": "Point",
        "coordinates": [
          18.1856084,
          59.4653971
        ]
      }
    },
    {
      "type": "Feature",
      "id": "node/31495675",
      "properties": {
        "name": "Österskär",
        "network": "SL",
        "public_transport": "station",
        "railway": "station",
        "railway:ref": "Ösk",
        "route_ref": "28",
        "sl_stop_id": "9660",
        "station": "light_rail",
        "train": "yes",
        "wikidata": "Q15487487",
        "id": "node/31495675"
      },
      "geometry": {
        "type": "Point",
        "coordinates": [
          18.3112143,
          59.4611597
        ]
      }
    },
    {
      "type": "Feature",
      "id": "node/31495943",
      "properties": {
        "name": "Tibble",
        "network": "SL",
        "public_transport": "station",
        "railway": "station",
        "railway:ref": "Tbl",
        "route_ref": "27",
        "sl_stop_id": "9632",
        "station": "light_rail",
        "wheelchair": "yes",
        "wikidata": "Q15492389",
        "id": "node/31495943"
      },
      "geometry": {
        "type": "Point",
        "coordinates": [
          18.0626017,
          59.442187
        ]
      }
    },
    {
      "type": "Feature",
      "id": "node/31496300",
      "properties": {
        "name": "Täby kyrkby",
        "network": "SL",
        "platforms": "1",
        "public_transport": "station",
        "railway": "station",
        "railway:ref": "Täb",
        "route_ref": "27",
        "sl_stop_id": "9629",
        "station": "light_rail",
        "wheelchair": "yes",
        "wikidata": "Q15499588",
        "id": "node/31496300"
      },
      "geometry": {
        "type": "Point",
        "coordinates": [
          18.0662817,
          59.4930158
        ]
      }
    },
    {
      "type": "Feature",
      "id": "node/32605189",
      "properties": {
        "name": "Skyttorp",
        "public_transport": "stop_position",
        "railway": "halt",
        "ref": "Syt",
        "train": "yes",
        "id": "node/32605189"
      },
      "geometry": {
        "type": "Point",
        "coordinates": [
          17.7371208,
          60.0799248
        ]
      }
    },
    {
      "type": "Feature",
      "id": "node/32916853",
      "properties": {
        "name": "Karlskoga Busstationen",
        "name:technical": "Karlskoga Dalbacksgatan",
        "public_transport": "stop_position",
        "railway": "halt",
        "ref": "Kasd",
        "train": "yes",
        "id": "node/32916853"
      },
      "geometry": {
        "type": "Point",
        "coordinates": [
          14.5108218,
          59.3260782
        ]
      }
    },
    {
      "type": "Feature",
      "id": "node/32916869",
      "properties": {
        "name": "Karlskoga centrum",
        "public_transport": "stop_position",
        "railway": "halt",
        "ref": "Ksac",
        "id": "node/32916869"
      },
      "geometry": {
        "type": "Point",
        "coordinates": [
          14.5249931,
          59.3252143
        ]
      }
    },
    {
      "type": "Feature",
      "id": "node/32916902",
      "properties": {
        "name": "Bofors",
        "railway": "station",
        "ref": "Bof",
        "id": "node/32916902"
      },
      "geometry": {
        "type": "Point",
        "coordinates": [
          14.5471959,
          59.3336321
        ]
      }
    },
    {
      "type": "Feature",
      "id": "node/32921863",
      "properties": {
        "name": "Lindesberg",
        "public_transport": "stop_position",
        "railway": "station",
        "railway:track_ref": "2",
        "ref": "Ld",
        "train": "yes",
        "wheelchair": "yes",
        "wikipedia": "sv:Lindesbergs station",
        "id": "node/32921863"
      },
      "geometry": {
        "type": "Point",
        "coordinates": [
          15.2281505,
          59.5950579
        ]
      }
    },
    {
      "type": "Feature",
      "id": "node/32921934",
      "properties": {
        "name": "Storå",
        "network": "Tåg i Bergslagen",
        "public_transport": "stop_position",
        "railway": "halt",
        "train": "yes",
        "wikipedia": "sv:Storå station",
        "id": "node/32921934"
      },
      "geometry": {
        "type": "Point",
        "coordinates": [
          15.143206,
          59.7135894
        ]
      }
    },
    {
      "type": "Feature",
      "id": "node/32924282",
      "properties": {
        "name": "Kopparberg",
        "public_transport": "stop_position",
        "railway": "station",
        "ref": "Kpg",
        "train": "yes",
        "id": "node/32924282"
      },
      "geometry": {
        "type": "Point",
        "coordinates": [
          14.9860865,
          59.8727066
        ]
      }
    },
    {
      "type": "Feature",
      "id": "node/32924333",
      "properties": {
        "name": "Ställdalen",
        "public_transport": "stop_position",
        "railway": "stop",
        "railway:ref": "Stl",
        "railway:track_ref": "1",
        "ref": "Stl",
        "train": "yes",
        "uic_name": "Ställdalen",
        "uic_ref": "7400638",
        "id": "node/32924333"
      },
      "geometry": {
        "type": "Point",
        "coordinates": [
          14.943312,
          59.9332343
        ]
      }
    },
    {
      "type": "Feature",
      "id": "node/32924765",
      "properties": {
        "name": "Ludvika",
        "railway": "station",
        "ref": "La",
        "wikipedia": "sv:Ludvika järnvägsstation",
        "id": "node/32924765"
      },
      "geometry": {
        "type": "Point",
        "coordinates": [
          15.1830363,
          60.1506185
        ]
      }
    },
    {
      "type": "Feature",
      "id": "node/32928355",
      "properties": {
        "name": "Bredsjö",
        "public_transport": "stop_position",
        "railway": "halt",
        "ref": "Brö",
        "train": "yes",
        "uic_name": "Bredsjö",
        "uic_ref": "7401533",
        "id": "node/32928355"
      },
      "geometry": {
        "type": "Point",
        "coordinates": [
          14.7279696,
          59.8321744
        ]
      }
    },
    {
      "type": "Feature",
      "id": "node/32930205",
      "properties": {
        "name": "Grythyttan",
        "public_transport": "stop_position",
        "railway": "stop",
        "railway:ref": "Ghy",
        "ref": "Ghy",
        "train": "yes",
        "uic_name": "Grythyttan",
        "uic_ref": "7400482",
        "id": "node/32930205"
      },
      "geometry": {
        "type": "Point",
        "coordinates": [
          14.5301497,
          59.7046185
        ]
      }
    },
    {
      "type": "Feature",
      "id": "node/32930305",
      "properties": {
        "name": "Nykroppa",
        "public_transport": "stop_position",
        "railway": "stop",
        "railway:ref": "Nka",
        "railway:track_ref": "22",
        "ref": "Nka",
        "train": "yes",
        "uic_name": "Nykroppa",
        "uic_ref": "7400816",
        "id": "node/32930305"
      },
      "geometry": {
        "type": "Point",
        "coordinates": [
          14.3077875,
          59.6236671
        ]
      }
    },
    {
      "type": "Feature",
      "id": "node/32930335",
      "properties": {
        "name": "Storfors",
        "public_transport": "stop_position",
        "railway": "station",
        "ref": "Sf",
        "train": "yes",
        "id": "node/32930335"
      },
      "geometry": {
        "type": "Point",
        "coordinates": [
          14.2715906,
          59.532981
        ]
      }
    },
    {
      "type": "Feature",
      "id": "node/32930682",
      "properties": {
        "name": "Loka",
        "public_transport": "stop_position",
        "railway": "stop",
        "railway:position:exact": "163.304",
        "railway:ref": "Loka",
        "ref": "Loka",
        "train": "yes",
        "id": "node/32930682"
      },
      "geometry": {
        "type": "Point",
        "coordinates": [
          14.4690435,
          59.6364116
        ]
      }
    },
    {
      "type": "Feature",
      "id": "node/32932188",
      "properties": {
        "name": "Kristinehamn",
        "public_transport": "stop_position",
        "railway": "stop",
        "railway:track_ref": "1",
        "ref": "Khn",
        "train": "yes",
        "id": "node/32932188"
      },
      "geometry": {
        "type": "Point",
        "coordinates": [
          14.1071671,
          59.3173299
        ]
      }
    },
    {
      "type": "Feature",
      "id": "node/33549295",
      "properties": {
        "name": "Borlänge",
        "public_transport": "stop_position",
        "railway": "station",
        "ref": "Blg",
        "train": "yes",
        "wheelchair": "yes",
        "wikidata": "Q9177683",
        "wikipedia": "sv:Borlänge centralstation",
        "id": "node/33549295"
      },
      "geometry": {
        "type": "Point",
        "coordinates": [
          15.4251534,
          60.4826645
        ]
      }
    },
    {
      "type": "Feature",
      "id": "node/33559806",
      "properties": {
        "name": "Djurås",
        "public_transport": "stop_position",
        "railway": "station",
        "ref": "Då",
        "train": "yes",
        "id": "node/33559806"
      },
      "geometry": {
        "type": "Point",
        "coordinates": [
          15.1386137,
          60.560075
        ]
      }
    },
    {
      "type": "Feature",
      "id": "node/33560427",
      "properties": {
        "name": "Falun",
        "public_transport": "station",
        "railway": "station",
        "ref": "Fln",
        "train": "yes",
        "wikidata": "Q9257892",
        "wikimedia_commons": "Category:Falun_station",
        "wikipedia": "sv:Falu centralstation",
        "id": "node/33560427"
      },
      "geometry": {
        "type": "Point",
        "coordinates": [
          15.6429392,
          60.6029822
        ]
      }
    },
    {
      "type": "Feature",
      "id": "node/33574357",
      "properties": {
        "name": "Hofors",
        "public_transport": "stop_position",
        "railway": "station",
        "ref": "Hfr",
        "train": "yes",
        "id": "node/33574357"
      },
      "geometry": {
        "type": "Point",
        "coordinates": [
          16.2671753,
          60.5694118
        ]
      }
    },
    {
      "type": "Feature",
      "id": "node/33584598",
      "properties": {
        "name": "Gagnef",
        "public_transport": "stop_position",
        "railway": "station",
        "ref": "Gnf",
        "train": "yes",
        "id": "node/33584598"
      },
      "geometry": {
        "type": "Point",
        "coordinates": [
          15.080637,
          60.5989744
        ]
      }
    },
    {
      "type": "Feature",
      "id": "node/33584710",
      "properties": {
        "name": "Leksand",
        "public_transport": "stop_position",
        "railway": "station",
        "ref": "Lsd",
        "train": "yes",
        "id": "node/33584710"
      },
      "geometry": {
        "type": "Point",
        "coordinates": [
          15.0028796,
          60.7342109
        ]
      }
    },
    {
      "type": "Feature",
      "id": "node/33584711",
      "properties": {
        "name": "Insjön",
        "public_transport": "station",
        "railway": "station",
        "ref": "In",
        "train": "yes",
        "id": "node/33584711"
      },
      "geometry": {
        "type": "Point",
        "coordinates": [
          15.0955753,
          60.674388
        ]
      }
    },
    {
      "type": "Feature",
      "id": "node/33585687",
      "properties": {
        "alt_name": "Mora Strand",
        "name": "Morastrand",
        "public_transport": "stop_position",
        "railway": "halt",
        "ref": "Mras",
        "train": "yes",
        "id": "node/33585687"
      },
      "geometry": {
        "type": "Point",
        "coordinates": [
          14.542746,
          61.0049023
        ]
      }
    },
    {
      "type": "Feature",
      "id": "node/33585688",
      "properties": {
        "name": "Mora",
        "operator": "Trafikverket",
        "public_transport": "stop_position",
        "railway": "station",
        "ref": "Mra",
        "train": "yes",
        "website": "https://www.trafikverket.se/",
        "id": "node/33585688"
      },
      "geometry": {
        "type": "Point",
        "coordinates": [
          14.5589285,
          61.0088597
        ]
      }
    },
    {
      "type": "Feature",
      "id": "node/33585949",
      "properties": {
        "name": "Tällberg",
        "public_transport": "stop_position",
        "railway": "stop",
        "ref": "Tlg",
        "train": "yes",
        "id": "node/33585949"
      },
      "geometry": {
        "type": "Point",
        "coordinates": [
          15.0191104,
          60.8184062
        ]
      }
    },
    {
      "type": "Feature",
      "id": "node/35155314",
      "properties": {
        "name": "Heby",
        "public_transport": "station",
        "railway": "station",
        "ref": "Hy",
        "train": "yes",
        "id": "node/35155314"
      },
      "geometry": {
        "type": "Point",
        "coordinates": [
          16.8523139,
          59.9404812
        ]
      }
    },
    {
      "type": "Feature",
      "id": "node/35231094",
      "properties": {
        "name": "Hesselby",
        "public_transport": "station",
        "railway": "station",
        "id": "node/35231094"
      },
      "geometry": {
        "type": "Point",
        "coordinates": [
          18.531121,
          57.5444556
        ]
      }
    },
    {
      "type": "Feature",
      "id": "node/35231096",
      "properties": {
        "name": "Munkebos",
        "railway": "halt",
        "id": "node/35231096"
      },
      "geometry": {
        "type": "Point",
        "coordinates": [
          18.5209552,
          57.537168
        ]
      }
    },
    {
      "type": "Feature",
      "id": "node/35231097",
      "properties": {
        "name": "Tule",
        "public_transport": "station",
        "railway": "station",
        "id": "node/35231097"
      },
      "geometry": {
        "type": "Point",
        "coordinates": [
          18.5069065,
          57.5234852
        ]
      }
    },
    {
      "type": "Feature",
      "id": "node/35231596",
      "properties": {
        "name": "Kambshagtorp",
        "railway": "halt",
        "id": "node/35231596"
      },
      "geometry": {
        "type": "Point",
        "coordinates": [
          18.5022064,
          57.520164
        ]
      }
    },
    {
      "type": "Feature",
      "id": "node/35320069",
      "properties": {
        "name": "Tumba",
        "network": "SL",
        "public_transport": "stop_position",
        "railway": "stop",
        "railway:track_ref": "4",
        "ref": "Tu",
        "train": "yes",
        "id": "node/35320069"
      },
      "geometry": {
        "type": "Point",
        "coordinates": [
          17.8365146,
          59.1997258
        ]
      }
    },
    {
      "type": "Feature",
      "id": "node/35320143",
      "properties": {
        "name": "Tullinge",
        "network": "SL",
        "public_transport": "stop_position",
        "railway": "stop",
        "railway:track_ref": "2",
        "ref": "Tul",
        "train": "yes",
        "id": "node/35320143"
      },
      "geometry": {
        "type": "Point",
        "coordinates": [
          17.904488,
          59.2056026
        ]
      }
    },
    {
      "type": "Feature",
      "id": "node/35439404",
      "properties": {
        "name": "Rönninge",
        "network": "SL",
        "public_transport": "stop_position",
        "railway": "stop",
        "railway:track_ref": "2",
        "ref": "Rön",
        "train": "yes",
        "id": "node/35439404"
      },
      "geometry": {
        "type": "Point",
        "coordinates": [
          17.750695,
          59.1936084
        ]
      }
    },
    {
      "type": "Feature",
      "id": "node/35690049",
      "properties": {
        "alt_name": "Sollentuna station",
        "name": "Sollentuna",
        "public_transport": "station",
        "railway": "station",
        "railway:ref": "Sol",
        "sl_stop_id": "9506",
        "wheelchair": "yes",
        "wikidata": "Q7558355",
        "wikipedia": "sv:Sollentuna station",
        "id": "node/35690049"
      },
      "geometry": {
        "type": "Point",
        "coordinates": [
          17.94845,
          59.4283893
        ]
      }
    },
    {
      "type": "Feature",
      "id": "node/35968307",
      "properties": {
        "name": "Häggvik",
        "public_transport": "station",
        "railway": "station",
        "railway:ref": "Hgv",
        "sl_stop_id": "9505",
        "wheelchair": "yes",
        "wikidata": "Q15100124",
        "wikipedia": "sv:Häggvik (pendeltågsstation)",
        "id": "node/35968307"
      },
      "geometry": {
        "type": "Point",
        "coordinates": [
          17.9328751,
          59.4437915
        ]
      }
    },
    {
      "type": "Feature",
      "id": "node/35968619",
      "properties": {
        "addr:city": "Sollentuna",
        "addr:country": "SE",
        "addr:housenumber": "12",
        "addr:street": "Stationsvägen",
        "name": "Norrviken",
        "public_transport": "station",
        "railway": "station",
        "railway:ref": "Nvk",
        "sl_stop_id": "9504",
        "wheelchair": "yes",
        "wikidata": "Q10602982",
        "wikipedia": "sv:Norrviken (pendeltågsstation)",
        "id": "node/35968619"
      },
      "geometry": {
        "type": "Point",
        "coordinates": [
          17.9242787,
          59.4591148
        ]
      }
    },
    {
      "type": "Feature",
      "id": "node/36202909",
      "properties": {
        "name": "Södertälje centrum",
        "network": "SL",
        "public_transport": "stop_position",
        "railway": "stop",
        "ref": "Söc",
        "train": "yes",
        "id": "node/36202909"
      },
      "geometry": {
        "type": "Point",
        "coordinates": [
          17.6275557,
          59.1919695
        ]
      }
    },
    {
      "type": "Feature",
      "id": "node/36989940",
      "properties": {
        "name": "Henriksdal",
        "public_transport": "stop_position",
        "railway": "station",
        "sl_stop_id": "9432",
        "source": "yahoo + survey",
        "train": "yes",
        "wikidata": "Q10522071",
        "wikipedia": "sv:Henriksdals station",
        "id": "node/36989940"
      },
      "geometry": {
        "type": "Point",
        "coordinates": [
          18.1083806,
          59.3121157
        ]
      }
    },
    {
      "type": "Feature",
      "id": "node/36995793",
      "properties": {
        "name": "Saltsjö-Järla",
        "public_transport": "stop_position",
        "railway": "station",
        "sl_stop_id": "9429",
        "train": "yes",
        "wikidata": "Q10660761",
        "wikipedia": "sv:Saltsjö-Järla",
        "id": "node/36995793"
      },
      "geometry": {
        "type": "Point",
        "coordinates": [
          18.1493501,
          59.306815
        ]
      }
    },
    {
      "type": "Feature",
      "id": "node/36995817",
      "properties": {
        "name": "Storängen",
        "public_transport": "stop_position",
        "railway": "station",
        "sl_stop_id": "9427",
        "train": "yes",
        "wikidata": "Q15411586",
        "wikipedia": "sv:Storängens station",
        "id": "node/36995817"
      },
      "geometry": {
        "type": "Point",
        "coordinates": [
          18.1779567,
          59.3056073
        ]
      }
    },
    {
      "type": "Feature",
      "id": "node/36995879",
      "properties": {
        "name": "Östervik",
        "public_transport": "stop_position",
        "railway": "station",
        "sl_stop_id": "9425",
        "train": "yes",
        "wheelchair": "limited",
        "wikidata": "Q10728153",
        "wikipedia": "sv:Östervik",
        "id": "node/36995879"
      },
      "geometry": {
        "type": "Point",
        "coordinates": [
          18.2352468,
          59.294913
        ]
      }
    },
    {
      "type": "Feature",
      "id": "node/36998357",
      "properties": {
        "name": "Fisksätra",
        "public_transport": "stop_position",
        "railway": "station",
        "sl_stop_id": "9424",
        "train": "yes",
        "wheelchair": "yes",
        "wikidata": "Q15455098",
        "id": "node/36998357"
      },
      "geometry": {
        "type": "Point",
        "coordinates": [
          18.255715,
          59.2940913
        ]
      }
    },
    {
      "type": "Feature",
      "id": "node/36998371",
      "properties": {
        "name": "Igelboda",
        "public_transport": "stop_position",
        "railway": "station",
        "sl_stop_id": "9423",
        "train": "yes",
        "wheelchair": "yes",
        "wikidata": "Q10534217",
        "wikipedia": "sv:Igelboda",
        "id": "node/36998371"
      },
      "geometry": {
        "type": "Point",
        "coordinates": [
          18.27535,
          59.2900153
        ]
      }
    },
    {
      "type": "Feature",
      "id": "node/37002064",
      "properties": {
        "name": "Tippen",
        "public_transport": "stop_position",
        "railway": "station",
        "sl_stop_id": "9443",
        "train": "yes",
        "wheelchair": "yes",
        "wikidata": "Q10698608",
        "wikipedia": "sv:Tippen (Saltsjöbanan)",
        "id": "node/37002064"
      },
      "geometry": {
        "type": "Point",
        "coordinates": [
          18.2773237,
          59.2841871
        ]
      }
    },
    {
      "type": "Feature",
      "id": "node/37002076",
      "properties": {
        "name": "Tattby",
        "public_transport": "stop_position",
        "railway": "station",
        "sl_stop_id": "9442",
        "train": "yes",
        "wikidata": "Q15457030",
        "id": "node/37002076"
      },
      "geometry": {
        "type": "Point",
        "coordinates": [
          18.2820021,
          59.2790313
        ]
      }
    },
    {
      "type": "Feature",
      "id": "node/37002098",
      "properties": {
        "name": "Erstaviksbadet",
        "public_transport": "stop_position",
        "railway": "station",
        "sl_stop_id": "9441",
        "train": "yes",
        "wikidata": "Q15457200",
        "id": "node/37002098"
      },
      "geometry": {
        "type": "Point",
        "coordinates": [
          18.2854004,
          59.2727682
        ]
      }
    },
    {
      "type": "Feature",
      "id": "node/37002113",
      "properties": {
        "name": "Solsidan",
        "public_transport": "stop_position",
        "railway": "station",
        "sl_stop_id": "9440",
        "train": "yes",
        "wikidata": "Q10673362",
        "wikipedia": "sv:Solsidan, Nacka kommun",
        "id": "node/37002113"
      },
      "geometry": {
        "type": "Point",
        "coordinates": [
          18.2960306,
          59.2708945
        ]
      }
    },
    {
      "type": "Feature",
      "id": "node/37014174",
      "properties": {
        "name": "Neglinge",
        "public_transport": "stop_position",
        "railway": "station",
        "sl_stop_id": "9422",
        "train": "yes",
        "wheelchair": "yes",
        "id": "node/37014174"
      },
      "geometry": {
        "type": "Point",
        "coordinates": [
          18.2923067,
          59.2884353
        ]
      }
    },
    {
      "type": "Feature",
      "id": "node/37014187",
      "properties": {
        "name": "Ringvägen",
        "public_transport": "stop_position",
        "railway": "station",
        "sl_stop_id": "9421",
        "train": "yes",
        "wikidata": "Q10655518",
        "wikipedia": "sv:Ringvägen, Saltsjöbaden",
        "id": "node/37014187"
      },
      "geometry": {
        "type": "Point",
        "coordinates": [
          18.3022566,
          59.2830858
        ]
      }
    },
    {
      "type": "Feature",
      "id": "node/37014205",
      "properties": {
        "name": "Saltsjöbaden",
        "public_transport": "stop_position",
        "railway": "station",
        "sl_stop_id": "9420",
        "train": "yes",
        "wikidata": "Q10660770",
        "wikipedia": "sv:Saltsjöbadens station",
        "id": "node/37014205"
      },
      "geometry": {
        "type": "Point",
        "coordinates": [
          18.3122854,
          59.2790314
        ]
      }
    },
    {
      "type": "Feature",
      "id": "node/37073041",
      "properties": {
        "name": "Trångsund",
        "network": "SL",
        "public_transport": "stop_position",
        "railway": "stop",
        "railway:ref": "Tåd",
        "route_ref": "J43",
        "sl_stop_id": "9732",
        "train": "yes",
        "id": "node/37073041"
      },
      "geometry": {
        "type": "Point",
        "coordinates": [
          18.1308314,
          59.2277488
        ]
      }
    },
    {
      "type": "Feature",
      "id": "node/37073137",
      "properties": {
        "name": "Jordbro",
        "network": "SL",
        "public_transport": "stop_position",
        "railway": "stop",
        "railway:ref": "Jbo",
        "route_ref": "J43",
        "sl_stop_id": "9729",
        "train": "yes",
        "id": "node/37073137"
      },
      "geometry": {
        "type": "Point",
        "coordinates": [
          18.1265854,
          59.1422334
        ]
      }
    },
    {
      "type": "Feature",
      "id": "node/37073149",
      "properties": {
        "name": "Västerhaninge",
        "network": "SL",
        "public_transport": "stop_position",
        "railway": "stop",
        "railway:ref": "Vhe",
        "route_ref": "J42X;J43;J43X",
        "sl_stop_id": "9728",
        "train": "yes",
        "id": "node/37073149"
      },
      "geometry": {
        "type": "Point",
        "coordinates": [
          18.1033886,
          59.1230368
        ]
      }
    },
    {
      "type": "Feature",
      "id": "node/37073159",
      "properties": {
        "name": "Tungelsta",
        "network": "SL",
        "public_transport": "stop_position",
        "railway": "stop",
        "railway:ref": "Ts",
        "route_ref": "J42X;J43;J43X",
        "sl_stop_id": "9726",
        "train": "yes",
        "wikidata": "Q17437937",
        "wikipedia": "sv:Tungelsta (pendeltågsstation)",
        "id": "node/37073159"
      },
      "geometry": {
        "type": "Point",
        "coordinates": [
          18.0456481,
          59.1026045
        ]
      }
    },
    {
      "type": "Feature",
      "id": "node/37073203",
      "properties": {
        "name": "Segersäng",
        "network": "SL",
        "public_transport": "stop_position",
        "railway": "stop",
        "railway:ref": "Ssä",
        "route_ref": "J42X;J43;J43X",
        "sl_stop_id": "9724",
        "train": "yes",
        "wikidata": "Q17412972",
        "wikipedia": "sv:Segersäng (pendeltågsstation)",
        "id": "node/37073203"
      },
      "geometry": {
        "type": "Point",
        "coordinates": [
          17.9266574,
          59.0289347
        ]
      }
    },
    {
      "type": "Feature",
      "id": "node/38152767",
      "properties": {
        "alt_name": "Helenelunds station",
        "name": "Helenelund",
        "railway": "station",
        "railway:ref": "Hel",
        "sl_stop_id": "9507",
        "wikidata": "Q10519463",
        "wikipedia": "sv:Helenelunds station",
        "id": "node/38152767"
      },
      "geometry": {
        "type": "Point",
        "coordinates": [
          17.9623526,
          59.4090374
        ]
      }
    },
    {
      "type": "Feature",
      "id": "node/38336499",
      "properties": {
        "name": "Järna",
        "public_transport": "stop_position",
        "railway": "stop",
        "ref": "Jn",
        "train": "yes",
        "id": "node/38336499"
      },
      "geometry": {
        "type": "Point",
        "coordinates": [
          17.5681203,
          59.0938437
        ]
      }
    },
    {
      "type": "Feature",
      "id": "node/38464534",
      "properties": {
        "name": "Ormsta",
        "network": "SL",
        "platforms": "2",
        "public_transport": "station",
        "railway": "station",
        "railway:ref": "Ota",
        "route_ref": "27",
        "sl_stop_id": "9625",
        "station": "light_rail",
        "wikidata": "Q15501127",
        "id": "node/38464534"
      },
      "geometry": {
        "type": "Point",
        "coordinates": [
          18.0795425,
          59.5460577
        ]
      }
    },
    {
      "type": "Feature",
      "id": "node/38464751",
      "properties": {
        "name": "Ekskogen",
        "network": "SL",
        "public_transport": "station",
        "railway": "station",
        "railway:ref": "Ekg",
        "route_ref": "27",
        "sl_stop_id": "9621",
        "station": "light_rail",
        "wikidata": "Q15505471",
        "id": "node/38464751"
      },
      "geometry": {
        "type": "Point",
        "coordinates": [
          18.2262771,
          59.6389908
        ]
      }
    },
    {
      "type": "Feature",
      "id": "node/38486530",
      "properties": {
        "name": "Kårsta",
        "network": "SL",
        "public_transport": "station",
        "railway": "station",
        "railway:ref": "Kår",
        "route_ref": "27",
        "sl_stop_id": "9620",
        "station": "light_rail",
        "wikidata": "Q15506264",
        "id": "node/38486530"
      },
      "geometry": {
        "type": "Point",
        "coordinates": [
          18.2675815,
          59.6567588
        ]
      }
    },
    {
      "type": "Feature",
      "id": "node/40113188",
      "properties": {
        "name": "Sandhem",
        "public_transport": "stop_position",
        "railway": "station",
        "ref": "Sm",
        "train": "yes",
        "id": "node/40113188"
      },
      "geometry": {
        "type": "Point",
        "coordinates": [
          13.7715545,
          57.9888301
        ]
      }
    },
    {
      "type": "Feature",
      "id": "node/41363272",
      "properties": {
        "name": "Mullsjö",
        "public_transport": "stop_position",
        "railway": "station",
        "ref": "Mu",
        "train": "yes",
        "id": "node/41363272"
      },
      "geometry": {
        "type": "Point",
        "coordinates": [
          13.882654,
          57.9150822
        ]
      }
    },
    {
      "type": "Feature",
      "id": "node/41363424",
      "properties": {
        "name": "Habo",
        "public_transport": "stop_position",
        "railway": "station",
        "ref": "Ho",
        "train": "yes",
        "id": "node/41363424"
      },
      "geometry": {
        "type": "Point",
        "coordinates": [
          14.0763238,
          57.9065943
        ]
      }
    },
    {
      "type": "Feature",
      "id": "node/41363602",
      "properties": {
        "name": "Bankeryd",
        "public_transport": "stop_position",
        "railway": "station",
        "ref": "Bry",
        "train": "yes",
        "id": "node/41363602"
      },
      "geometry": {
        "type": "Point",
        "coordinates": [
          14.1287141,
          57.860741
        ]
      }
    },
    {
      "type": "Feature",
      "id": "node/41402403",
      "properties": {
        "name": "Huskvarna",
        "public_transport": "stop_position",
        "railway": "station",
        "ref": "Hka",
        "train": "yes",
        "id": "node/41402403"
      },
      "geometry": {
        "type": "Point",
        "coordinates": [
          14.265439,
          57.7821752
        ]
      }
    },
    {
      "type": "Feature",
      "id": "node/41402615",
      "properties": {
        "name": "Tenhult",
        "public_transport": "stop_position",
        "railway": "station",
        "ref": "Th",
        "train": "yes",
        "id": "node/41402615"
      },
      "geometry": {
        "type": "Point",
        "coordinates": [
          14.3264346,
          57.7054087
        ]
      }
    },
    {
      "type": "Feature",
      "id": "node/41402956",
      "properties": {
        "name": "Äng",
        "railway": "halt",
        "ref": "Äng",
        "id": "node/41402956"
      },
      "geometry": {
        "type": "Point",
        "coordinates": [
          14.5679871,
          57.6917622
        ]
      }
    },
    {
      "type": "Feature",
      "id": "node/41424882",
      "properties": {
        "name": "Ballingslöv",
        "public_transport": "stop_position",
        "railway": "halt",
        "ref": "Bl",
        "train": "yes",
        "id": "node/41424882"
      },
      "geometry": {
        "type": "Point",
        "coordinates": [
          13.8486512,
          56.2143372
        ]
      }
    },
    {
      "type": "Feature",
      "id": "node/43487870",
      "properties": {
        "layer": "2",
        "name": "Södertälje Syd",
        "official_name": "Södertälje syd övre",
        "railway": "station",
        "railway:ref": "Söö",
        "wheelchair": "yes",
        "wikidata": "Q3429432",
        "wikipedia": "sv:Södertälje syd",
        "id": "node/43487870"
      },
      "geometry": {
        "type": "Point",
        "coordinates": [
          17.6457665,
          59.1625554
        ]
      }
    },
    {
      "type": "Feature",
      "id": "node/47147057",
      "properties": {
        "name": "Daglösen",
        "railway": "stop",
        "railway:ref": "Dgö",
        "ref": "Dgö",
        "id": "node/47147057"
      },
      "geometry": {
        "type": "Point",
        "coordinates": [
          14.1913904,
          59.6420136
        ]
      }
    },
    {
      "type": "Feature",
      "id": "node/48884984",
      "properties": {
        "name": "Östertälje",
        "network": "SL",
        "public_transport": "stop_position",
        "railway": "stop",
        "railway:track_ref": "2",
        "ref": "Öte",
        "train": "yes",
        "id": "node/48884984"
      },
      "geometry": {
        "type": "Point",
        "coordinates": [
          17.6582553,
          59.1852318
        ]
      }
    },
    {
      "type": "Feature",
      "id": "node/52179817",
      "properties": {
        "name": "Näsbypark",
        "network": "SL",
        "public_transport": "station",
        "railway": "station",
        "railway:ref": "Nbp",
        "route_ref": "29",
        "sl_stop_id": "9680",
        "station": "light_rail",
        "wikidata": "Q15475762",
        "id": "node/52179817"
      },
      "geometry": {
        "type": "Point",
        "coordinates": [
          18.0954758,
          59.4301914
        ]
      }
    },
    {
      "type": "Feature",
      "id": "node/52315452",
      "properties": {
        "name": "Sundsvall C",
        "public_transport": "station",
        "railway": "station",
        "ref": "Suc",
        "train": "yes",
        "website": "https://www.jernhusen.se/Resenar/Sundsvalls-Centralstation/",
        "wikidata": "Q10683844",
        "wikipedia": "sv:Sundsvalls centralstation",
        "id": "node/52315452"
      },
      "geometry": {
        "type": "Point",
        "coordinates": [
          17.315347,
          62.3863884
        ]
      }
    },
    {
      "type": "Feature",
      "id": "node/52754393",
      "properties": {
        "name": "Eken",
        "railway": "halt",
        "id": "node/52754393"
      },
      "geometry": {
        "type": "Point",
        "coordinates": [
          18.523884,
          57.5399108
        ]
      }
    },
    {
      "type": "Feature",
      "id": "node/57101416",
      "properties": {
        "name": "Boden C",
        "public_transport": "stop_position",
        "railway": "stop",
        "train": "yes",
        "id": "node/57101416"
      },
      "geometry": {
        "type": "Point",
        "coordinates": [
          21.7081138,
          65.8288511
        ]
      }
    },
    {
      "type": "Feature",
      "id": "node/57101636",
      "properties": {
        "name": "Sunderby sjukhus",
        "public_transport": "stop_position",
        "railway": "stop",
        "train": "yes",
        "id": "node/57101636"
      },
      "geometry": {
        "type": "Point",
        "coordinates": [
          21.9348857,
          65.6735926
        ]
      }
    },
    {
      "type": "Feature",
      "id": "node/57101735",
      "properties": {
        "name": "Luleå C",
        "public_transport": "station",
        "railway": "station",
        "ref": "Le",
        "train": "yes",
        "wikidata": "Q3360372",
        "id": "node/57101735"
      },
      "geometry": {
        "type": "Point",
        "coordinates": [
          22.1655551,
          65.5841289
        ]
      }
    },
    {
      "type": "Feature",
      "id": "node/57318036",
      "properties": {
        "name": "Bräcke",
        "public_transport": "stop_position",
        "railway": "station",
        "ref": "Bä",
        "train": "yes",
        "wikidata": "Q5394415",
        "id": "node/57318036"
      },
      "geometry": {
        "type": "Point",
        "coordinates": [
          15.4174949,
          62.7501409
        ]
      }
    },
    {
      "type": "Feature",
      "id": "node/57318868",
      "properties": {
        "name": "Ånge",
        "public_transport": "stop_position",
        "railway": "station",
        "railway:track_ref": "1",
        "ref": "Åg",
        "train": "yes",
        "wheelchair": "yes",
        "wikidata": "Q16459363",
        "id": "node/57318868"
      },
      "geometry": {
        "type": "Point",
        "coordinates": [
          15.6589481,
          62.5233749
        ]
      }
    },
    {
      "type": "Feature",
      "id": "node/57319399",
      "properties": {
        "name": "Erikslund",
        "public_transport": "stop_position",
        "railway": "halt",
        "ref": "Ei",
        "train": "yes",
        "wikidata": "Q101041820",
        "id": "node/57319399"
      },
      "geometry": {
        "type": "Point",
        "coordinates": [
          15.9236862,
          62.5282569
        ]
      }
    },
    {
      "type": "Feature",
      "id": "node/57319605",
      "properties": {
        "name": "Fränsta",
        "public_transport": "stop_position",
        "railway": "station",
        "ref": "Ft",
        "train": "yes",
        "wikidata": "Q101040977",
        "id": "node/57319605"
      },
      "geometry": {
        "type": "Point",
        "coordinates": [
          16.1670068,
          62.4960642
        ]
      }
    },
    {
      "type": "Feature",
      "id": "node/57810872",
      "properties": {
        "name": "Vännäs",
        "public_transport": "station",
        "railway": "station",
        "ref": "Vns",
        "train": "yes",
        "wikidata": "Q65194986",
        "id": "node/57810872"
      },
      "geometry": {
        "type": "Point",
        "coordinates": [
          19.7496495,
          63.9083207
        ]
      }
    },
    {
      "type": "Feature",
      "id": "node/57841765",
      "properties": {
        "name": "Hällnäs",
        "public_transport": "station",
        "railway": "station",
        "ref": "Hls",
        "train": "yes",
        "wikidata": "Q96739394",
        "id": "node/57841765"
      },
      "geometry": {
        "type": "Point",
        "coordinates": [
          19.6258803,
          64.3058769
        ]
      }
    },
    {
      "type": "Feature",
      "id": "node/57900277",
      "properties": {
        "name": "Bastuträsk",
        "public_transport": "station",
        "railway": "station",
        "ref": "Bst",
        "train": "yes",
        "wikidata": "Q11853963",
        "id": "node/57900277"
      },
      "geometry": {
        "type": "Point",
        "coordinates": [
          20.0412633,
          64.7898187
        ]
      }
    },
    {
      "type": "Feature",
      "id": "node/57900607",
      "properties": {
        "name": "Jörn",
        "operator": "SJ AB",
        "public_transport": "station",
        "railway": "station",
        "ref": "Jrn",
        "train": "yes",
        "wikidata": "Q11979660",
        "id": "node/57900607"
      },
      "geometry": {
        "type": "Point",
        "coordinates": [
          20.0299457,
          65.0539185
        ]
      }
    },
    {
      "type": "Feature",
      "id": "node/57901335",
      "properties": {
        "name": "Långträsk",
        "passengers": "no",
        "railway": "station",
        "ref": "Ltk",
        "id": "node/57901335"
      },
      "geometry": {
        "type": "Point",
        "coordinates": [
          20.3363131,
          65.3772294
        ]
      }
    },
    {
      "type": "Feature",
      "id": "node/57902320",
      "properties": {
        "name": "Korsträsk",
        "railway": "station",
        "ref": "Ktä",
        "id": "node/57902320"
      },
      "geometry": {
        "type": "Point",
        "coordinates": [
          20.8660935,
          65.6650401
        ]
      }
    },
    {
      "type": "Feature",
      "id": "node/57902380",
      "properties": {
        "name": "Älvsbyn",
        "public_transport": "station",
        "railway": "station",
        "ref": "Äy",
        "train": "yes",
        "wikidata": "Q16459410",
        "id": "node/57902380"
      },
      "geometry": {
        "type": "Point",
        "coordinates": [
          20.9941864,
          65.6784263
        ]
      }
    },
    {
      "type": "Feature",
      "id": "node/59511575",
      "properties": {
        "name": "Orsa",
        "public_transport": "stop_position",
        "railway": "station",
        "railway:track_ref": "1",
        "ref": "Ors",
        "train": "yes",
        "url": "http://www.inlandsbanan.se/",
        "id": "node/59511575"
      },
      "geometry": {
        "type": "Point",
        "coordinates": [
          14.6211438,
          61.119135
        ]
      }
    },
    {
      "type": "Feature",
      "id": "node/59751300",
      "properties": {
        "name": "Åkers Runö",
        "network": "SL",
        "public_transport": "station",
        "railway": "station",
        "railway:ref": "Åru",
        "route_ref": "28",
        "sl_stop_id": "9663",
        "station": "light_rail",
        "wikidata": "Q10726331",
        "wikipedia": "sv:Åkers Runö",
        "id": "node/59751300"
      },
      "geometry": {
        "type": "Point",
        "coordinates": [
          18.2703817,
          59.4806333
        ]
      }
    },
    {
      "type": "Feature",
      "id": "node/59751301",
      "properties": {
        "name": "Åkersberga",
        "network": "SL",
        "public_transport": "station",
        "railway": "station",
        "railway:ref": "Åbg",
        "route_ref": "28",
        "sl_stop_id": "9662",
        "station": "light_rail",
        "wheelchair": "yes",
        "wikidata": "Q15487070",
        "id": "node/59751301"
      },
      "geometry": {
        "type": "Point",
        "coordinates": [
          18.2988158,
          59.479126
        ]
      }
    },
    {
      "type": "Feature",
      "id": "node/59760369",
      "properties": {
        "name": "Kungsör",
        "public_transport": "stop_position",
        "railway": "station",
        "ref": "Kör",
        "train": "yes",
        "id": "node/59760369"
      },
      "geometry": {
        "type": "Point",
        "coordinates": [
          16.1016318,
          59.4277368
        ]
      }
    },
    {
      "type": "Feature",
      "id": "node/59776507",
      "properties": {
        "name": "Täljö",
        "network": "SL",
        "public_transport": "station",
        "railway": "station",
        "railway:ref": "Täl",
        "route_ref": "28",
        "sl_stop_id": "9664",
        "station": "light_rail",
        "wikidata": "Q2510059",
        "wikipedia": "sv:Täljö",
        "id": "node/59776507"
      },
      "geometry": {
        "type": "Point",
        "coordinates": [
          18.2353199,
          59.4731136
        ]
      }
    },
    {
      "type": "Feature",
      "id": "node/60005518",
      "properties": {
        "name": "Härnösand",
        "public_transport": "station",
        "railway": "station",
        "ref": "Hsd",
        "train": "yes",
        "wikidata": "Q17343159",
        "id": "node/60005518"
      },
      "geometry": {
        "type": "Point",
        "coordinates": [
          17.9288768,
          62.6357198
        ]
      }
    },
    {
      "type": "Feature",
      "id": "node/60012918",
      "properties": {
        "disused:railway": "station",
        "name": "Emådalen",
        "railway": "halt",
        "id": "node/60012918"
      },
      "geometry": {
        "type": "Point",
        "coordinates": [
          14.7248936,
          61.3223924
        ]
      }
    },
    {
      "type": "Feature",
      "id": "node/60012966",
      "properties": {
        "name": "Björnidet",
        "railway": "halt",
        "ref": "Bid",
        "source": "survey",
        "id": "node/60012966"
      },
      "geometry": {
        "type": "Point",
        "coordinates": [
          14.7468227,
          61.3814229
        ]
      }
    },