{
  "type": "FeatureCollection",
  "features": [
    {
      "type": "Feature",
      "id": "node/245745141",
      "properties": {
        "name": "Rzd. No 161",
        "name:ru": "Разъезд № 161",
        "railway": "station",
        "id": "node/245745141"
      },
      "geometry": {
        "type": "Point",
        "coordinates": [
          66.3685937,
          37.3687585
        ]
      }
    },
    {
      "type": "Feature",
      "id": "node/245755273",
      "properties": {
        "name": "Km 4268",
        "railway": "halt",
        "id": "node/245755273"
      },
      "geometry": {
        "type": "Point",
        "coordinates": [
          65.3799878,
          37.7537335
        ]
      }
    },
    {
      "type": "Feature",
      "id": "node/245898168",
      "properties": {
        "name": "Garateňňir",
        "name:en": "Garatengir",
        "name:ru": "Гаратенгир",
        "name:tk": "Garateňňir",
        "old_name:ru": "Кара-Тенгир",
        "public_transport": "station",
        "railway": "station",
        "id": "node/245898168"
      },
      "geometry": {
        "type": "Point",
        "coordinates": [
          53.5059829,
          40.0212497
        ]
      }
    },
    {
      "type": "Feature",
      "id": "node/274970840",
      "properties": {
        "alt_name": "Barkhany",
        "esr:user": "750434",
        "name": "Balhana",
        "name:ru": "Балхана",
        "railway": "station",
        "uic_ref": "6700835",
        "id": "node/274970840"
      },
      "geometry": {
        "type": "Point",
        "coordinates": [
          63.4754829,
          38.923574
        ]
      }
    },
    {
      "type": "Feature",
      "id": "node/275156824",
      "properties": {
        "name": "Jebel",
        "name:ru": "Джебел",
        "railway": "station",
        "id": "node/275156824"
      },
      "geometry": {
        "type": "Point",
        "coordinates": [
          54.2295179,
          39.6295203
        ]
      }
    },
    {
      "type": "Feature",
      "id": "node/275164301",
      "properties": {
        "addr:village": "Akjaguýma",
        "name": "Akjaguýma",
        "name:ru": "Акджагуйма",
        "name:tk": "Akjaguýma",
        "public_transport": "station",
        "railway": "station",
        "id": "node/275164301"
      },
      "geometry": {
        "type": "Point",
        "coordinates": [
          55.1690845,
          39.348882
        ]
      }
    },
    {
      "type": "Feature",
      "id": "node/275214357",
      "properties": {
        "addr:city": "Bamy",
        "name": "Bamy",
        "name:ru": "Бамы",
        "railway": "station",
        "id": "node/275214357"
      },
      "geometry": {
        "type": "Point",
        "coordinates": [
          56.8047808,
          38.7286642
        ]
      }
    },
    {
      "type": "Feature",
      "id": "node/275232562",
      "properties": {
        "addr:city": "Baherden",
        "name": "Bäherden",
        "name:en": "Baherden",
        "name:ru": "Бахeрден",
        "name:tk": "Bäherden",
        "note": "Turkmen parliament changed the name back to Baherden by legislative act of 25 November 2017.",
        "old_name": "Baharly",
        "old_name:ru": "Бахарли",
        "railway": "station",
        "id": "node/275232562"
      },
      "geometry": {
        "type": "Point",
        "coordinates": [
          57.4317459,
          38.4342109
        ]
      }
    },
    {
      "type": "Feature",
      "id": "node/559220816",
      "properties": {
        "name": "Km 225",
        "railway": "halt",
        "id": "node/559220816"
      },
      "geometry": {
        "type": "Point",
        "coordinates": [
          62.6624314,
          35.8343101
        ]
      }
    },
    {
      "type": "Feature",
      "id": "node/559774407",
      "properties": {
        "name": "Km 312",
        "railway": "halt",
        "id": "node/559774407"
      },
      "geometry": {
        "type": "Point",
        "coordinates": [
          62.3565147,
          35.28984
        ]
      }
    },
    {
      "type": "Feature",
      "id": "node/915309675",
      "properties": {
        "name": "Tejen",
        "name:ja": "テジェン",
        "name:ru": "Теджен",
        "railway": "station",
        "id": "node/915309675"
      },
      "geometry": {
        "type": "Point",
        "coordinates": [
          60.5005729,
          37.3845969
        ]
      }
    },
    {
      "type": "Feature",
      "id": "node/1187827845",
      "properties": {
        "name": "Rzd. No 100",
        "name:ru": "Разъезд № 100",
        "railway": "station",
        "id": "node/1187827845"
      },
      "geometry": {
        "type": "Point",
        "coordinates": [
          57.3297772,
          38.4995877
        ]
      }
    },
    {
      "type": "Feature",
      "id": "node/1187987196",
      "properties": {
        "name": "Rzd. No 96",
        "name:ru": "Разъезд № 96",
        "railway": "station",
        "id": "node/1187987196"
      },
      "geometry": {
        "type": "Point",
        "coordinates": [
          57.7947133,
          38.2469437
        ]
      }
    },
    {
      "type": "Feature",
      "id": "node/1187987268",
      "properties": {
        "addr:city": "Gökdepe",
        "addr:street": "Magtymguly şaýoly",
        "alt_name": "Гекдепе",
        "name": "Gökdepe",
        "name:en": "Gokdepe",
        "name:ru": "Гёкдепе",
        "public_transport": "station",
        "railway": "station",
        "id": "node/1187987268"
      },
      "geometry": {
        "type": "Point",
        "coordinates": [
          57.9654706,
          38.1599471
        ]
      }
    },
    {
      "type": "Feature",
      "id": "node/1315638627",
      "properties": {
        "name": "Km 5",
        "railway": "halt",
        "id": "node/1315638627"
      },
      "geometry": {
        "type": "Point",
        "coordinates": [
          61.0592075,
          37.5324041
        ]
      }
    },
    {
      "type": "Feature",
      "id": "node/1555523192",
      "properties": {
        "addr:city": "Tallymerjen",
        "alt_name": "Tallimarjon",
        "esr:user": "734408",
        "name": "Tallymerjen",
        "name:ru": "Талимарджан",
        "name:tk": "Tallymerjen",
        "railway": "station",
        "source": "https://wiki.openstreetmap.org/wiki/Districts_in_Turkmenistan",
        "id": "node/1555523192"
      },
      "geometry": {
        "type": "Point",
        "coordinates": [
          65.5588639,
          38.2789642
        ]
      }
    },
    {
      "type": "Feature",
      "id": "node/1555523201",
      "properties": {
        "name": "Rzd. No 155",
        "name:ru": "Разъезд № 155",
        "railway": "station",
        "id": "node/1555523201"
      },
      "geometry": {
        "type": "Point",
        "coordinates": [
          65.5026597,
          38.1465887
        ]
      }
    },
    {
      "type": "Feature",
      "id": "node/1555523210",
      "properties": {
        "name": "Km 4200",
        "railway": "halt",
        "id": "node/1555523210"
      },
      "geometry": {
        "type": "Point",
        "coordinates": [
          65.5270213,
          38.1990291
        ]
      }
    },
    {
      "type": "Feature",
      "id": "node/1555523216",
      "properties": {
        "name": "Rzd. No 156",
        "name:ru": "Разъезд № 156",
        "railway": "halt",
        "id": "node/1555523216"
      },
      "geometry": {
        "type": "Point",
        "coordinates": [
          65.3910386,
          38.0204961
        ]
      }
    },
    {
      "type": "Feature",
      "id": "node/1555523243",
      "properties": {
        "name": "Km 4211",
        "railway": "halt",
        "id": "node/1555523243"
      },
      "geometry": {
        "type": "Point",
        "coordinates": [
          65.4673041,
          38.1067799
        ]
      }
    },
    {
      "type": "Feature",
      "id": "node/1584542557",
      "properties": {
        "name": "No 161",
        "name:ru": "No 161",
        "public_transport": "station",
        "railway": "station",
        "id": "node/1584542557"
      },
      "geometry": {
        "type": "Point",
        "coordinates": [
          66.4221207,
          37.3641258
        ]
      }
    },
    {
      "type": "Feature",
      "id": "node/1584542558",
      "properties": {
        "name": "Rzd. No 160",
        "name:ru": "Разъезд № 160",
        "railway": "station",
        "id": "node/1584542558"
      },
      "geometry": {
        "type": "Point",
        "coordinates": [
          66.1722961,
          37.4443774
        ]
      }
    },
    {
      "type": "Feature",
      "id": "node/1584542559",
      "properties": {
        "alt_name": "Чаршангу",
        "esr:user": "749704",
        "name": "Köýtendag",
        "name:ru": "Койтендаг",
        "railway": "station",
        "uic_ref": "6700247",
        "id": "node/1584542559"
      },
      "geometry": {
        "type": "Point",
        "coordinates": [
          66.0250174,
          37.5256634
        ]
      }
    },
    {
      "type": "Feature",
      "id": "node/1584776336",
      "properties": {
        "addr:city": "Aşgabat geňeşligi",
        "addr:village": "Tahýadaş",
        "alt_name": "Takhyatash",
        "esr:user": "758506",
        "name": "Tahýadaş",
        "name:ru": "Тахиаташ",
        "public_transport": "station",
        "railway": "station",
        "uic_ref": "6700889",
        "id": "node/1584776336"
      },
      "geometry": {
        "type": "Point",
        "coordinates": [
          59.5793308,
          42.2652344
        ]
      }
    },
    {
      "type": "Feature",
      "id": "node/1584776360",
      "properties": {
        "esr:user": "758309",
        "name": "Zarpçy",
        "name:ru": "Зарпчы",
        "public_transport": "station",
        "railway": "station",
        "id": "node/1584776360"
      },
      "geometry": {
        "type": "Point",
        "coordinates": [
          59.7834603,
          42.0626117
        ]
      }
    },
    {
      "type": "Feature",
      "id": "node/1584776361",
      "properties": {
        "name": "Km 474",
        "railway": "halt",
        "id": "node/1584776361"
      },
      "geometry": {
        "type": "Point",
        "coordinates": [
          59.8751938,
          41.9547007
        ]
      }
    },
    {
      "type": "Feature",
      "id": "node/1585869746",
      "properties": {
        "name": "Rzd. No 176",
        "name:ru": "Разъезд № 176",
        "railway": "station",
        "id": "node/1585869746"
      },
      "geometry": {
        "type": "Point",
        "coordinates": [
          61.499127,
          41.1554895
        ]
      }
    },
    {
      "type": "Feature",
      "id": "node/1585869748",
      "properties": {
        "name": "Rzd. No 175",
        "name:ru": "Разъезд № 175",
        "railway": "halt",
        "id": "node/1585869748"
      },
      "geometry": {
        "type": "Point",
        "coordinates": [
          61.9016827,
          40.9178021
        ]
      }
    },
    {
      "type": "Feature",
      "id": "node/1585882935",
      "properties": {
        "addr:city": "Lebap säherçesi",
        "alt_name": "Sazakyn",
        "alt_name:ru": "Сазакин",
        "esr:user": "757819",
        "name": "Sazakly",
        "railway": "station",
        "uic_ref": "6700266",
        "id": "node/1585882935"
      },
      "geometry": {
        "type": "Point",
        "coordinates": [
          61.7452838,
          41.1101841
        ]
      }
    },
    {
      "type": "Feature",
      "id": "node/1588224382",
      "properties": {
        "esr:user": "757109",
        "name": "Türkmenabat 2",
        "name:ru": "Туркменабад II",
        "railway": "station",
        "id": "node/1588224382"
      },
      "geometry": {
        "type": "Point",
        "coordinates": [
          63.5374958,
          39.0947758
        ]
      }
    },
    {
      "type": "Feature",
      "id": "node/1588243848",
      "properties": {
        "addr:city": "Farap",
        "alt_name": "Фарап",
        "alt_name:ru": "Фараб",
        "esr": "750203",
        "name": "Farap",
        "name:ru": "Фарап",
        "public_transport": "station",
        "railway": "station",
        "train": "yes",
        "id": "node/1588243848"
      },
      "geometry": {
        "type": "Point",
        "coordinates": [
          63.6010018,
          39.1693998
        ]
      }
    },
    {
      "type": "Feature",
      "id": "node/1588243852",
      "properties": {
        "name": "Rzd. No 48",
        "name:ru": "Разъезд № 48",
        "public_transport": "station",
        "railway": "station",
        "id": "node/1588243852"
      },
      "geometry": {
        "type": "Point",
        "coordinates": [
          63.677045,
          39.257931
        ]
      }
    },
    {
      "type": "Feature",
      "id": "node/1590421642",
      "properties": {
        "alt_name": "Denev",
        "alt_name:ru": "Дянев",
        "esr:user": "757306",
        "name": "Dänew",
        "name:en": "Danev",
        "name:ru": "Денев",
        "name:tk": "Dänew",
        "public_transport": "station",
        "railway": "station",
        "uic_ref": "6700854",
        "id": "node/1590421642"
      },
      "geometry": {
        "type": "Point",
        "coordinates": [
          63.1552567,
          39.2653732
        ]
      }
    },
    {
      "type": "Feature",
      "id": "node/1637061140",
      "properties": {
        "name": "Garagum 2",
        "name:ru": "Гарагум 2",
        "railway": "halt",
        "id": "node/1637061140"
      },
      "geometry": {
        "type": "Point",
        "coordinates": [
          58.4922114,
          38.7326439
        ]
      }
    },
    {
      "type": "Feature",
      "id": "node/2001269626",
      "properties": {
        "esr:user": "750523",
        "gns:dsg": "RSTN: railroad station",
        "gns:ufi": "-2560077",
        "name": "Peşhi",
        "name:en": "Peshhi",
        "name:ru": "Пешхи",
        "public_transport": "station",
        "railway": "station",
        "source": "NGA GNS;survey",
        "uic_ref": "6700839",
        "id": "node/2001269626"
      },
      "geometry": {
        "type": "Point",
        "coordinates": [
          62.9955837,
          38.3157336
        ]
      }
    },
    {
      "type": "Feature",
      "id": "node/2047811478",
      "properties": {
        "alt_name": "Lavak",
        "esr:user": "759000",
        "name": "Lawak",
        "name:ru": "Лавак",
        "railway": "station",
        "uic_ref": "6700842",
        "wikidata": "Q98716703",
        "id": "node/2047811478"
      },
      "geometry": {
        "type": "Point",
        "coordinates": [
          59.6776278,
          42.1678878
        ]
      }
    },
    {
      "type": "Feature",
      "id": "node/2156280927",
      "properties": {
        "name": "Düýeli",
        "name:en": "Dueli",
        "name:ru": "Дуели",
        "railway": "station",
        "wikidata": "Q98716756",
        "id": "node/2156280927"
      },
      "geometry": {
        "type": "Point",
        "coordinates": [
          58.4024228,
          40.6476695
        ]
      }
    },
    {
      "type": "Feature",
      "id": "node/2157556488",
      "properties": {
        "esr:user": "758807",
        "name": "Saparmyrat Türkmenbaşy",
        "name:en": "Saparmurat Turkmenbashy",
        "name:ru": "Имени Сапармыратa Ниязова",
        "railway": "station",
        "source": "bing",
        "uic_ref": "6700901",
        "id": "node/2157556488"
      },
      "geometry": {
        "type": "Point",
        "coordinates": [
          58.8004024,
          42.3650474
        ]
      }
    },
    {
      "type": "Feature",
      "id": "node/2398686424",
      "properties": {
        "esr:user": "756303",
        "name": "Serhetyaka",
        "name:ru": "Серхетяка",
        "railway": "station",
        "id": "node/2398686424"
      },
      "geometry": {
        "type": "Point",
        "coordinates": [
          53.6560439,
          42.2761789
        ]
      }
    },
    {
      "type": "Feature",
      "id": "node/2398687865",
      "properties": {
        "esr:user": "752923",
        "name": "Gokdere",
        "name:en": "Gokdere",
        "name:ru": "Гокдере",
        "public_transport": "station",
        "railway": "station",
        "id": "node/2398687865"
      },
      "geometry": {
        "type": "Point",
        "coordinates": [
          55.495736,
          40.3298162
        ]
      }
    },
    {
      "type": "Feature",
      "id": "node/2398707266",
      "properties": {
        "name": "Bereket 2",
        "railway": "stop",
        "id": "node/2398707266"
      },
      "geometry": {
        "type": "Point",
        "coordinates": [
          55.4895567,
          39.2675358
        ]
      }
    },
    {
      "type": "Feature",
      "id": "node/2424011769",
      "properties": {
        "name": "Km 145",
        "railway": "halt",
        "id": "node/2424011769"
      },
      "geometry": {
        "type": "Point",
        "coordinates": [
          62.4810408,
          36.6328739
        ]
      }
    },
    {
      "type": "Feature",
      "id": "node/2424012078",
      "properties": {
        "name": "Km 116",
        "railway": "halt",
        "id": "node/2424012078"
      },
      "geometry": {
        "type": "Point",
        "coordinates": [
          62.4750204,
          36.8473575
        ]
      }
    },
    {
      "type": "Feature",
      "id": "node/2424012176",
      "properties": {
        "name": "Km 94",
        "railway": "halt",
        "id": "node/2424012176"
      },
      "geometry": {
        "type": "Point",
        "coordinates": [
          62.4562325,
          37.0031314
        ]
      }
    },
    {
      "type": "Feature",
      "id": "node/2442349398",
      "properties": {
        "addr:city": "Balkanabat",
        "name": "Balkanabat",
        "public_transport": "stop_position",
        "railway": "station",
        "train": "yes",
        "id": "node/2442349398"
      },
      "geometry": {
        "type": "Point",
        "coordinates": [
          54.3484682,
          39.5050843
        ]
      }
    },
    {
      "type": "Feature",
      "id": "node/2465558926",
      "properties": {
        "name": "Rzd. No 132",
        "name:ru": "Разъезд №132",
        "public_transport": "station",
        "railway": "station",
        "id": "node/2465558926"
      },
      "geometry": {
        "type": "Point",
        "coordinates": [
          53.0199624,
          40.0070212
        ]
      }
    },
    {
      "type": "Feature",
      "id": "node/2470727000",
      "properties": {
        "alt_name": "Kyukyurtly",
        "esr:user": "757607",
        "name": "Kükürty",
        "name:ru": "Кюкюртли",
        "railway": "station",
        "uic_ref": "6700849",
        "id": "node/2470727000"
      },
      "geometry": {
        "type": "Point",
        "coordinates": [
          62.280371,
          40.2687037
        ]
      }
    },
    {
      "type": "Feature",
      "id": "node/2632812048",
      "properties": {
        "addr:city": "Oguzhan",
        "addr:street": "P-9",
        "name": "Oguzhan",
        "old_name": "Gulanly",
        "railway": "station",
        "source": "bing",
        "id": "node/2632812048"
      },
      "geometry": {
        "type": "Point",
        "coordinates": [
          61.0931308,
          37.3417946
        ]
      }
    },
    {
      "type": "Feature",
      "id": "node/2632812120",
      "properties": {
        "addr:city": "Parahat şäherçesi",
        "alt_name": "Dzhu-Dzhu-Klu",
        "name": "Parahat",
        "name:ru": "Parahat",
        "public_transport": "station",
        "railway": "station",
        "id": "node/2632812120"
      },
      "geometry": {
        "type": "Point",
        "coordinates": [
          61.0308378,
          37.5138741
        ]
      }
    },
    {
      "type": "Feature",
      "id": "node/2632812364",
      "properties": {
        "name": "Rzd. No 69",
        "name:ru": "Разъезд № 69",
        "railway": "station",
        "id": "node/2632812364"
      },
      "geometry": {
        "type": "Point",
        "coordinates": [
          61.0842071,
          37.5582985
        ]
      }
    },
    {
      "type": "Feature",
      "id": "node/2699667319",
      "properties": {
        "esr:user": "753907",
        "name": "Bereket",
        "name:ru": "Берекет",
        "railway": "station",
        "source": "bing",
        "uic_ref": "6700909",
        "id": "node/2699667319"
      },
      "geometry": {
        "type": "Point",
        "coordinates": [
          55.5214142,
          39.2454022
        ]
      }
    },
    {
      "type": "Feature",
      "id": "node/2700790542",
      "properties": {
        "alt_name": "Kipchak",
        "name": "Gypjak",
        "name:ru": "Гыпджак",
        "railway": "station",
        "id": "node/2700790542"
      },
      "geometry": {
        "type": "Point",
        "coordinates": [
          58.304844,
          37.9987787
        ]
      }
    },
    {
      "type": "Feature",
      "id": "node/2700992323",
      "properties": {
        "alt_name": "Ovadan Depe",
        "name": "Owadan Depe",
        "name:ru": "Овадан депе",
        "name:tk": "Owadan Depe",
        "public_transport": "station",
        "railway": "station",
        "train": "yes",
        "id": "node/2700992323"
      },
      "geometry": {
        "type": "Point",
        "coordinates": [
          58.3627125,
          38.1241301
        ]
      }
    },
    {
      "type": "Feature",
      "id": "node/2718407411",
      "properties": {
        "name": "Razdelnaya 129",
        "name:ru": "Разъезд №129",
        "public_transport": "station",
        "railway": "station",
        "id": "node/2718407411"
      },
      "geometry": {
        "type": "Point",
        "coordinates": [
          53.6644137,
          40.0169959
        ]
      }
    },
    {
      "type": "Feature",
      "id": "node/2718634602",
      "properties": {
        "name": "Rzd. No 126",
        "name:ru": "Разъезд № 126",
        "public_transport": "station",
        "railway": "station",
        "id": "node/2718634602"
      },
      "geometry": {
        "type": "Point",
        "coordinates": [
          54.0213856,
          39.8838131
        ]
      }
    },
    {
      "type": "Feature",
      "id": "node/2718798393",
      "properties": {
        "name": "Rzd. No 124",
        "name:ru": "Разъезд № 124",
        "public_transport": "station",
        "railway": "station",
        "id": "node/2718798393"
      },
      "geometry": {
        "type": "Point",
        "coordinates": [
          54.1957939,
          39.7196823
        ]
      }
    },
    {
      "type": "Feature",
      "id": "node/2719024516",
      "properties": {
        "name": "Razdelnaya 123",
        "name:ru": "Разъезд 123",
        "public_transport": "station",
        "railway": "station",
        "id": "node/2719024516"
      },
      "geometry": {
        "type": "Point",
        "coordinates": [
          54.2809113,
          39.5564737
        ]
      }
    },
    {
      "type": "Feature",
      "id": "node/2794217340",
      "properties": {
        "esr:user": "756708",
        "name": "Ata",
        "name:ru": "Ата",
        "public_transport": "station",
        "railway": "station",
        "id": "node/2794217340"
      },
      "geometry": {
        "type": "Point",
        "coordinates": [
          61.0844358,
          36.8181187
        ]
      }
    },
    {
      "type": "Feature",
      "id": "node/2945761272",
      "properties": {
        "name": "Türkmenbaşy",
        "name:ja": "トルクメンバシ",
        "name:ru": "Туркменбаши",
        "public_transport": "station",
        "railway": "station",
        "id": "node/2945761272"
      },
      "geometry": {
        "type": "Point",
        "coordinates": [
          52.9951702,
          40.0037415
        ]
      }
    },
    {
      "type": "Feature",
      "id": "node/2945770452",
      "properties": {
        "esr:user": "756106",
        "name": "Serhetabat",
        "name:ar": "سرحد آباد",
        "name:fa": "سرحدآباد",
        "name:pnb": "سرحدآباد",
        "name:ru": "Серхетабат",
        "name:ur": "سرحدآباد",
        "public_transport": "station",
        "railway": "station",
        "uic_ref": "6700285",
        "id": "node/2945770452"
      },
      "geometry": {
        "type": "Point",
        "coordinates": [
          62.3443047,
          35.2829164
        ]
      }
    },
    {
      "type": "Feature",
      "id": "node/2945785088",
      "properties": {
        "addr:city": "Sarahs",
        "name": "Sarahs",
        "name:ar": "سرخس",
        "name:fa": "سرخس",
        "name:ks": "سرخس",
        "name:ru": "Серахс",
        "name:tk": "Sarahs",
        "name:ur": "سرخس",
        "public_transport": "station",
        "railway": "station",
        "id": "node/2945785088"
      },
      "geometry": {
        "type": "Point",
        "coordinates": [
          61.197816,
          36.5284568
        ]
      }
    },
    {
      "type": "Feature",
      "id": "node/2980026242",
      "properties": {
        "name": "Arçman",
        "name:en": "Archman",
        "name:ru": "Арчман",
        "name:tk": "Arçman",
        "railway": "station",
        "id": "node/2980026242"
      },
      "geometry": {
        "type": "Point",
        "coordinates": [
          57.1302403,
          38.591178
        ]
      }
    },
    {
      "type": "Feature",
      "id": "node/2980026653",
      "properties": {
        "name": "Rzd. No 103",
        "name:ru": "Разъезд № 103",
        "railway": "halt",
        "id": "node/2980026653"
      },
      "geometry": {
        "type": "Point",
        "coordinates": [
          56.9250085,
          38.6751297
        ]
      }
    },
    {
      "type": "Feature",
      "id": "node/3109376919",
      "properties": {
        "addr:city": "Koneurgench",
        "addr:street": "P-1",
        "esr:user": "758900",
        "name": "Köneürgenç",
        "name:en": "Koneurgench",
        "name:ja": "クフナ・ウルゲンチ",
        "name:ru": "Куняургенч",
        "public_transport": "station",
        "railway": "station",
        "id": "node/3109376919"
      },
      "geometry": {
        "type": "Point",
        "coordinates": [
          59.1428816,
          42.292378
        ]
      }
    },
    {
      "type": "Feature",
      "id": "node/3145081581",
      "properties": {
        "alt_name": "Amu Dar'ya",
        "alt_name:ru": "Амыдеря",
        "esr:user": "749102",
        "name": "Amyderýa",
        "name:ru": "Амударья",
        "old_name": "Kerki",
        "railway": "station",
        "uic_ref": "6700240",
        "id": "node/3145081581"
      },
      "geometry": {
        "type": "Point",
        "coordinates": [
          65.2496549,
          37.885307
        ]
      }
    },
    {
      "type": "Feature",
      "id": "node/3145091074",
      "properties": {
        "addr:city": "Gazojak",
        "esr:user": "757908",
        "name": "Gazojak",
        "name:de": "Gassodschak",
        "name:ru": "Газоджак",
        "name:tk": "Gazojak",
        "public_transport": "station",
        "railway": "station",
        "uic_ref": "6700139",
        "id": "node/3145091074"
      },
      "geometry": {
        "type": "Point",
        "coordinates": [
          61.400633,
          41.1973417
        ]
      }
    },
    {
      "type": "Feature",
      "id": "node/3187042055",
      "properties": {
        "addr:city": "Türkmenbaşy şäherçesi",
        "alt_name": "Gyusha",
        "name": "Gyuşa",
        "name:ru": "Гюша",
        "public_transport": "station",
        "railway": "station",
        "id": "node/3187042055"
      },
      "geometry": {
        "type": "Point",
        "coordinates": [
          53.1138709,
          40.0175202
        ]
      }
    },
    {
      "type": "Feature",
      "id": "node/3187132672",
      "properties": {
        "addr:street": "Aşgabat-Daşoguz awtomobil ýoly",
        "name": "Altyn Menzil",
        "name:ru": "Алтын мензил",
        "network": "Türkmen Demir Ýollary",
        "public_transport": "station",
        "railway": "station",
        "id": "node/3187132672"
      },
      "geometry": {
        "type": "Point",
        "coordinates": [
          58.5069896,
          38.5227158
        ]
      }
    },
    {
      "type": "Feature",
      "id": "node/3188022666",
      "properties": {
        "alt_name": "Kodch",
        "name": "Goç",
        "name:ru": "Гоч",
        "railway": "station",
        "id": "node/3188022666"
      },
      "geometry": {
        "type": "Point",
        "coordinates": [
          56.5593803,
          38.8622931
        ]
      }
    },
    {
      "type": "Feature",
      "id": "node/3188028875",
      "properties": {
        "alt_name": "Boynyuzyn",
        "esr:user": "757202",
        "name": "Boýnuzyn",
        "name:ru": "Бойныузын, Буюн-Узун",
        "railway": "station",
        "uic_ref": "6700855",
        "id": "node/3188028875"
      },
      "geometry": {
        "type": "Point",
        "coordinates": [
          63.3006279,
          39.2015609
        ]
      }
    },
    {
      "type": "Feature",
      "id": "node/3188031346",
      "properties": {
        "alt_name": "Ene-Kulyevo",
        "esr:user": "757310",
        "fixme": "need updated name for this train station",
        "name": "Galkynyş",
        "name:ru": "Галкыныш",
        "public_transport": "station",
        "railway": "station",
        "uic_ref": "6700853",
        "id": "node/3188031346"
      },
      "geometry": {
        "type": "Point",
        "coordinates": [
          62.9962646,
          39.3149539
        ]
      }
    },
    {
      "type": "Feature",
      "id": "node/3188035616",
      "properties": {
        "alt_name": "Khalkabad;Khalkabat",
        "esr:user": "757518",
        "name": "Halkabat",
        "name:ru": "Халкабат",
        "name:tk": "Halkabat",
        "public_transport": "station",
        "railway": "station",
        "uic_ref": "6700851",
        "id": "node/3188035616"
      },
      "geometry": {
        "type": "Point",
        "coordinates": [
          62.3735809,
          40.0765078
        ]
      }
    },
    {
      "type": "Feature",
      "id": "node/3188036698",
      "properties": {
        "esr:user": "757503",
        "name": "Gabakly",
        "name:ru": "Kабаклы",
        "public_transport": "station",
        "railway": "station",
        "uic_ref": "6700000",
        "id": "node/3188036698"
      },
      "geometry": {
        "type": "Point",
        "coordinates": [
          62.5291827,
          39.7682437
        ]
      }
    },
    {
      "type": "Feature",
      "id": "node/3188040450",
      "properties": {
        "alt_name": "Лебаб",
        "esr:user": "757804",
        "name": "Lebap",
        "name:ru": "Лебап",
        "railway": "station",
        "uic_ref": "6700267",
        "id": "node/3188040450"
      },
      "geometry": {
        "type": "Point",
        "coordinates": [
          61.8507038,
          41.0278848
        ]
      }
    },
    {
      "type": "Feature",
      "id": "node/3188119510",
      "properties": {
        "alt_name": "Kala-i-Mor",
        "esr:user": "755902",
        "name": "Galaýmor",
        "name:ru": "Галаймор",
        "railway": "station",
        "uic_ref": "6700283",
        "id": "node/3188119510"
      },
      "geometry": {
        "type": "Point",
        "coordinates": [
          62.5604306,
          35.6536365
        ]
      }
    },
    {
      "type": "Feature",
      "id": "node/3188119986",
      "properties": {
        "name": "Ýoloten",
        "name:en": "Eloten",
        "name:ru": "Елотен",
        "railway": "station",
        "id": "node/3188119986"
      },
      "geometry": {
        "type": "Point",
        "coordinates": [
          62.3545133,
          37.2930995
        ]
      }
    },
    {
      "type": "Feature",
      "id": "node/3188126161",
      "properties": {
        "alt_name": "Sary-yas",
        "esr:user": "755601",
        "name": "Saryýazy",
        "name:ru": "Сарыязы",
        "railway": "station",
        "uic_ref": "6700939",
        "id": "node/3188126161"
      },
      "geometry": {
        "type": "Point",
        "coordinates": [
          62.59359,
          36.4629891
        ]
      }
    },
    {
      "type": "Feature",
      "id": "node/3188128695",
      "properties": {
        "addr:city": "Sandykgaçy",
        "alt_name": "Sandiy-Kazhy",
        "esr:user": "755508",
        "name": "Sandykgaçy",
        "name:ru": "Сандыкгачы",
        "public_transport": "station",
        "railway": "station",
        "uic_ref": "6700938",
        "id": "node/3188128695"
      },
      "geometry": {
        "type": "Point",
        "coordinates": [
          62.5540195,
          36.5382921
        ]
      }
    },
    {
      "type": "Feature",
      "id": "node/3188137295",
      "properties": {
        "name": "Büzmeýin",
        "name:ru": "Безмеин",
        "name:tk": "Büzmeýin",
        "old_name": "Abadan",
        "old_name:ru": "Абадан",
        "railway": "station",
        "id": "node/3188137295"
      },
      "geometry": {
        "type": "Point",
        "coordinates": [
          58.0803585,
          38.1026274
        ]
      }
    },
    {
      "type": "Feature",
      "id": "node/3188139229",
      "properties": {
        "alt_name": "Dzhanakhir",
        "name": "Janahyr",
        "name:ru": "Джанахыр",
        "name:tk": "Janahyr",
        "public_transport": "station",
        "railway": "station",
        "id": "node/3188139229"
      },
      "geometry": {
        "type": "Point",
        "coordinates": [
          56.134241,
          39.0274625
        ]
      }
    },
    {
      "type": "Feature",
      "id": "node/3188143151",
      "properties": {
        "alt_name": "Yzkander",
        "name": "Isgender",
        "name:ru": "Исгендер",
        "railway": "station",
        "id": "node/3188143151"
      },
      "geometry": {
        "type": "Point",
        "coordinates": [
          55.9320355,
          39.0762298
        ]
      }
    },
    {
      "type": "Feature",
      "id": "node/3188145671",
      "properties": {
        "alt_name": "Uzun-Su",
        "name": "Uzun Suw",
        "name:ru": "Узун сув",
        "railway": "station",
        "id": "node/3188145671"
      },
      "geometry": {
        "type": "Point",
        "coordinates": [
          55.7124687,
          39.2101752
        ]
      }
    },
    {
      "type": "Feature",
      "id": "node/3188146234",
      "properties": {
        "alt_name": "Shaumyan",
        "name": "Şaumyan",
        "name:ru": "Шаумян",
        "public_transport": "station",
        "railway": "station",
        "id": "node/3188146234"
      },
      "geometry": {
        "type": "Point",
        "coordinates": [
          55.3411155,
          39.2994204
        ]
      }
    },
    {
      "type": "Feature",
      "id": "node/3188147897",
      "properties": {
        "name": "Arkaç",
        "name:ru": "Аркач",
        "public_transport": "station",
        "railway": "station",
        "id": "node/3188147897"
      },
      "geometry": {
        "type": "Point",
        "coordinates": [
          55.0100834,
          39.4050879
        ]
      }
    },
    {
      "type": "Feature",
      "id": "node/3188147916",
      "properties": {
        "name": "Aydyng",
        "name:ru": "Айдынг",
        "public_transport": "station",
        "railway": "station",
        "id": "node/3188147916"
      },
      "geometry": {
        "type": "Point",
        "coordinates": [
          54.8258314,
          39.3815624
        ]
      }
    },
    {
      "type": "Feature",
      "id": "node/3188156123",
      "properties": {
        "alt_name": "Balla-Ishem",
        "name": "Balla-Işem",
        "name:ru": "Балла-Ишем",
        "railway": "halt",
        "id": "node/3188156123"
      },
      "geometry": {
        "type": "Point",
        "coordinates": [
          54.4892672,
          39.4350991
        ]
      }
    },
    {
      "type": "Feature",
      "id": "node/3188163235",
      "properties": {
        "name": "Kaulya",
        "name:ru": "Кайлю",
        "railway": "halt",
        "id": "node/3188163235"
      },
      "geometry": {
        "type": "Point",
        "coordinates": [
          53.1507996,
          40.0091833
        ]
      }
    },
    {
      "type": "Feature",
      "id": "node/3188183306",
      "properties": {
        "name": "Km 468",
        "railway": "halt",
        "id": "node/3188183306"
      },
      "geometry": {
        "type": "Point",
        "coordinates": [
          59.9361079,
          41.8719549
        ]
      }
    },
    {
      "type": "Feature",
      "id": "node/3219289453",
      "properties": {
        "name": "Yasga",
        "railway": "station",
        "id": "node/3219289453"
      },
      "geometry": {
        "type": "Point",
        "coordinates": [
          55.9284057,
          39.6699214
        ]
      }
    },
    {
      "type": "Feature",
      "id": "node/3221356253",
      "properties": {
        "alt_name": "Takir",
        "name": "Takyr",
        "name:ru": "Такир",
        "railway": "station",
        "id": "node/3221356253"
      },
      "geometry": {
        "type": "Point",
        "coordinates": [
          60.2455724,
          37.2716819
        ]
      }
    },
    {
      "type": "Feature",
      "id": "node/3221362751",
      "properties": {
        "name": "Rzd. No 66",
        "name:ru": "Разъезд № 66",
        "railway": "station",
        "id": "node/3221362751"
      },
      "geometry": {
        "type": "Point",
        "coordinates": [
          61.7539125,
          37.6168744
        ]
      }
    },
    {
      "type": "Feature",
      "id": "node/3221364208",
      "properties": {
        "alt_name": "Geok-Syur",
        "name": "Göksüýri",
        "name:en": "Geksyury",
        "name:ru": "Гексюйри",
        "name:tk": "Göksüýri",
        "railway": "station",
        "id": "node/3221364208"
      },
      "geometry": {
        "type": "Point",
        "coordinates": [
          60.7425225,
          37.45417
        ]
      }
    },
    {
      "type": "Feature",
      "id": "node/3221364651",
      "properties": {
        "alt_name": "Dort-Kuyu",
        "name": "Dörtguýy",
        "name:ru": "Дертгуйы",
        "railway": "station",
        "id": "node/3221364651"
      },
      "geometry": {
        "type": "Point",
        "coordinates": [
          61.2922692,
          37.6198846
        ]
      }
    },
    {
      "type": "Feature",
      "id": "node/3221365881",
      "properties": {
        "alt_name": "Karabata",
        "name": "Garybata",
        "name:ru": "Гарыбата",
        "railway": "station",
        "id": "node/3221365881"
      },
      "geometry": {
        "type": "Point",
        "coordinates": [
          61.5635599,
          37.6210088
        ]
      }
    },
    {
      "type": "Feature",
      "id": "node/3221370129",
      "properties": {
        "addr:city": "Mollanepes adyndaky şäherçe",
        "name": "Mollanepes",
        "name:ru": "Молланепес",
        "public_transport": "station",
        "railway": "station",
        "id": "node/3221370129"
      },
      "geometry": {
        "type": "Point",
        "coordinates": [
          61.9358556,
          37.6035107
        ]
      }
    },
    {
      "type": "Feature",
      "id": "node/3221374451",
      "properties": {
        "alt_name": "Kurban-Kala",
        "esr:user": "750805",
        "name": "Gurbangala",
        "name:ru": "Гурбангала",
        "railway": "station",
        "uic_ref": "6700927",
        "id": "node/3221374451"
      },
      "geometry": {
        "type": "Point",
        "coordinates": [
          62.3523395,
          37.6878791
        ]
      }
    },
    {
      "type": "Feature",
      "id": "node/3221378144",
      "properties": {
        "esr:user": "750913",
        "name": "Rzd. No 64",
        "name:ru": "Разъезд № 64",
        "railway": "station",
        "id": "node/3221378144"
      },
      "geometry": {
        "type": "Point",
        "coordinates": [
          62.0307617,
          37.6172502
        ]
      }
    },
    {
      "type": "Feature",
      "id": "node/3221379914",
      "properties": {
        "alt_name": "Zakhmet",
        "esr:user": "750701",
        "name": "Zähmet",
        "name:ru": "Захмет",
        "railway": "station",
        "uic_ref": "6700928",
        "id": "node/3221379914"
      },
      "geometry": {
        "type": "Point",
        "coordinates": [
          62.5296195,
          37.7749964
        ]
      }
    },
    {
      "type": "Feature",
      "id": "node/3221868779",
      "properties": {
        "esr:user": "750504",
        "name": "Repetek",
        "name:ru": "Репетек",
        "railway": "station",
        "uic_ref": "6700837",
        "id": "node/3221868779"
      },
      "geometry": {
        "type": "Point",
        "coordinates": [
          63.1773712,
          38.5622883
        ]
      }
    },
    {
      "type": "Feature",
      "id": "node/3221918126",
      "properties": {
        "alt_name": "Dargan-Ata",
        "name": "Darganata",
        "name:ru": "Дарган-Ата",
        "name:tk": "Darganata",
        "old_name": "Birata",
        "old_name:ru": "Бирата",
        "public_transport": "station",
        "railway": "station",
        "id": "node/3221918126"
      },
      "geometry": {
        "type": "Point",
        "coordinates": [
          62.1274157,
          40.4899758
        ]
      }
    },
    {
      "type": "Feature",
      "id": "node/3221933028",
      "properties": {
        "alt_name": "Karabekaul",
        "name": "Garabekewül",
        "name:ru": "Карабекаул",
        "railway": "station",
        "id": "node/3221933028"
      },
      "geometry": {
        "type": "Point",
        "coordinates": [
          64.0803806,
          38.4436183
        ]
      }
    },
    {
      "type": "Feature",
      "id": "node/3221940422",
      "properties": {
        "alt_name": "Talkhatan-Baba",
        "esr:user": "755118",
        "name": "Talhatanbaba",
        "name:ru": "Талхатанбаба",
        "public_transport": "station",
        "railway": "station",
        "uic_ref": "6700934",
        "wikidata": "Q98716672",
        "id": "node/3221940422"
      },
      "geometry": {
        "type": "Point",
        "coordinates": [
          62.1557382,
          37.401946
        ]
      }
    },
    {
      "type": "Feature",
      "id": "node/3221948474",
      "properties": {
        "esr:user": "755103",
        "name": "Semenik",
        "name:ru": "Семеник",
        "railway": "station",
        "uic_ref": "6700933",
        "wikidata": "Q98716674",
        "id": "node/3221948474"
      },
      "geometry": {
        "type": "Point",
        "coordinates": [
          61.9704608,
          37.4921622
        ]
      }
    },
    {
      "type": "Feature",
      "id": "node/3221948990",
      "properties": {
        "name": "Altyn Asyr",
        "name:ru": "Алтын Асыр",
        "railway": "station",
        "wikidata": "Q98716720",
        "id": "node/3221948990"
      },
      "geometry": {
        "type": "Point",
        "coordinates": [
          61.8794623,
          37.5360505
        ]
      }
    },
    {
      "type": "Feature",
      "id": "node/3221954730",
      "properties": {
        "addr:city": "Çemenabat",
        "alt_name": "Chemenibit",
        "esr:user": "755936",
        "name": "Çemenabat",
        "name:ru": "Чеменабат",
        "operator": "Türkmen Demir Ýollary",
        "public_transport": "station",
        "railway": "station",
        "uic_ref": "6700284",
        "id": "node/3221954730"
      },
      "geometry": {
        "type": "Point",
        "coordinates": [
          62.3996911,
          35.4536123
        ]
      }
    },
    {
      "type": "Feature",
      "id": "node/3221956089",
      "properties": {
        "name": "Km 51",
        "railway": "halt",
        "id": "node/3221956089"
      },
      "geometry": {
        "type": "Point",
        "coordinates": [
          62.2685886,
          37.3466145
        ]
      }
    },
    {
      "type": "Feature",
      "id": "node/3221962156",
      "properties": {
        "name": "Km 305",
        "railway": "halt",
        "id": "node/3221962156"
      },
      "geometry": {
        "type": "Point",
        "coordinates": [
          62.4027862,
          35.3429882
        ]
      }
    },
    {
      "type": "Feature",
      "id": "node/3221963690",
      "properties": {
        "name": "Km 279",
        "railway": "halt",
        "id": "node/3221963690"
      },
      "geometry": {
        "type": "Point",
        "coordinates": [
          62.5069956,
          35.5276888
        ]
      }
    },
    {
      "type": "Feature",
      "id": "node/3221963817",
      "properties": {
        "name": "Km 260",
        "railway": "halt",
        "id": "node/3221963817"
      },
      "geometry": {
        "type": "Point",
        "coordinates": [
          62.5922468,
          35.6805665
        ]
      }
    },
    {
      "type": "Feature",
      "id": "node/3221971699",
      "properties": {
        "alt_name": "Tash-Kepry",
        "esr:user": "755705",
        "name": "Daşköpri",
        "name:en": "Dashkopri",
        "name:ru": "Дашкепри",
        "railway": "station",
        "uic_ref": "6700281",
        "id": "node/3221971699"
      },
      "geometry": {
        "type": "Point",
        "coordinates": [
          62.6422342,
          36.2748832
        ]
      }
    },
    {
      "type": "Feature",
      "id": "node/3221978681",
      "properties": {
        "alt_name": "Imam-Baba",
        "esr:user": "755404",
        "name": "Ymambaba",
        "name:ru": "Ымамбаба",
        "railway": "station",
        "uic_ref": "6700937",
        "id": "node/3221978681"
      },
      "geometry": {
        "type": "Point",
        "coordinates": [
          62.4572832,
          36.7155116
        ]
      }
    },
    {
      "type": "Feature",
      "id": "node/3221981489",
      "properties": {
        "name": "Km 220",
        "public_transport": "station",
        "railway": "station",
        "id": "node/3221981489"
      },
      "geometry": {
        "type": "Point",
        "coordinates": [
          62.7271748,
          35.964004
        ]
      }
    },
    {
      "type": "Feature",
      "id": "node/3221985269",
      "properties": {
        "name": "Km 124",
        "railway": "halt",
        "id": "node/3221985269"
      },
      "geometry": {
        "type": "Point",
        "coordinates": [
          62.4828965,
          36.7649171
        ]
      }
    },
    {
      "type": "Feature",
      "id": "node/3221986846",
      "properties": {
        "alt_name": "Takhta-Bazar",
        "esr:user": "755809",
        "name": "Tagtabazar",
        "name:ru": "Тагтабазар",
        "public_transport": "station",
        "railway": "station",
        "uic_ref": "6700282",
        "id": "node/3221986846"
      },
      "geometry": {
        "type": "Point",
        "coordinates": [
          62.7114754,
          36.0135975
        ]
      }
    },
    {
      "type": "Feature",
      "id": "node/3221989360",
      "properties": {
        "name": "Km 102",
        "railway": "halt",
        "id": "node/3221989360"
      },
      "geometry": {
        "type": "Point",
        "coordinates": [
          62.4610459,
          36.9530725
        ]
      }
    },
    {
      "type": "Feature",
      "id": "node/3222000778",
      "properties": {
        "alt_name": "Sulman-Bent",
        "esr:user": "755300",
        "name": "Soltanbent",
        "name:ru": "Солтанбент",
        "railway": "station",
        "uic_ref": "6700799",
        "id": "node/3222000778"
      },
      "geometry": {
        "type": "Point",
        "coordinates": [
          62.450009,
          37.1237634
        ]
      }
    },
    {
      "type": "Feature",
      "id": "node/3222003695",
      "properties": {
        "name": "Km 71",
        "railway": "halt",
        "id": "node/3222003695"
      },
      "geometry": {
        "type": "Point",
        "coordinates": [
          62.3978236,
          37.2093047
        ]
      }
    },
    {
      "type": "Feature",
      "id": "node/3222004257",
      "properties": {
        "name": "Km 74",
        "railway": "halt",
        "id": "node/3222004257"
      },
      "geometry": {
        "type": "Point",
        "coordinates": [
          62.4213133,
          37.1786095
        ]
      }
    },
    {
      "type": "Feature",
      "id": "node/3415481009",
      "properties": {
        "addr:city": "Etrek",
        "name": "Etrek",
        "name:en": "Etrek",
        "name:ru": "Этрек",
        "name:tk": "Etrek",
        "operator": "Türkmen Demir Ýollary",
        "public_transport": "station",
        "railway": "station",
        "train": "yes",
        "id": "node/3415481009"
      },
      "geometry": {
        "type": "Point",
        "coordinates": [
          54.7408533,
          37.7051991
        ]
      }
    },
    {
      "type": "Feature",
      "id": "node/3883121346",
      "properties": {
        "name": "Akjadepe",
        "name:ru": "Акджадепе",
        "railway": "station",
        "id": "node/3883121346"
      },
      "geometry": {
        "type": "Point",
        "coordinates": [
          54.7138271,
          37.9045413
        ]
      }
    },
    {
      "type": "Feature",
      "id": "node/3883124196",
      "properties": {
        "alt_name": "Madav, Madau",
        "name": "Madaw",
        "name:ru": "Мадав",
        "railway": "station",
        "id": "node/3883124196"
      },
      "geometry": {
        "type": "Point",
        "coordinates": [
          54.7137432,
          38.1417037
        ]
      }
    },
    {
      "type": "Feature",
      "id": "node/3883125510",
      "properties": {
        "alt_name": "Babaguly",
        "name": "Balguýy",
        "name:ru": "Балгуйы",
        "public_transport": "station",
        "railway": "station",
        "id": "node/3883125510"
      },
      "geometry": {
        "type": "Point",
        "coordinates": [
          54.7037845,
          38.467917
        ]
      }
    },
    {
      "type": "Feature",
      "id": "node/3883127918",
      "properties": {
        "alt_name": "Zirik",
        "name": "Bugdaýly",
        "name:ru": "Бугдайлы",
        "name:uk": "Буґдайли",
        "railway": "station",
        "id": "node/3883127918"
      },
      "geometry": {
        "type": "Point",
        "coordinates": [
          54.6914671,
          38.8390622
        ]
      }
    },
    {
      "type": "Feature",
      "id": "node/3883129410",
      "properties": {
        "alt_name": "Tersakan",
        "name": "Döwletýar",
        "name:ru": "Довлетяр",
        "railway": "station",
        "id": "node/3883129410"
      },
      "geometry": {
        "type": "Point",
        "coordinates": [
          54.7274057,
          38.9249289
        ]
      }
    },
    {
      "type": "Feature",
      "id": "node/3883136754",
      "properties": {
        "name": "Däneata",
        "name:ru": "Дянеата",
        "railway": "station",
        "id": "node/3883136754"
      },
      "geometry": {
        "type": "Point",
        "coordinates": [
          55.143084,
          39.1649087
        ]
      }
    },
    {
      "type": "Feature",
      "id": "node/3883144727",
      "properties": {
        "name": "Rzd. No 112",
        "name:ru": "Разъезд № 112",
        "name:tk": "112-nji duralga",
        "public_transport": "station",
        "railway": "station",
        "id": "node/3883144727"
      },
      "geometry": {
        "type": "Point",
        "coordinates": [
          55.8692983,
          39.1188025
        ]
      }
    },
    {
      "type": "Feature",
      "id": "node/3883318357",
      "properties": {
        "name": "Rzd. No 108",
        "name:ru": "Разъезд № 108",
        "railway": "station",
        "id": "node/3883318357"
      },
      "geometry": {
        "type": "Point",
        "coordinates": [
          56.4210886,
          38.9333094
        ]
      }
    },
    {
      "type": "Feature",
      "id": "node/3883321423",
      "properties": {
        "name": "Rzd. No 105",
        "name:ru": "Разъезд № 105",
        "railway": "station",
        "id": "node/3883321423"
      },
      "geometry": {
        "type": "Point",
        "coordinates": [
          56.7112419,
          38.7801488
        ]
      }
    },
    {
      "type": "Feature",
      "id": "node/3883322921",
      "properties": {
        "addr:city": "Akdepe geňeşligi",
        "name": "Rzd. No 97",
        "name:ru": "Разъезд № 97",
        "name:tk": "97-nji duralga",
        "public_transport": "station",
        "railway": "station",
        "id": "node/3883322921"
      },
      "geometry": {
        "type": "Point",
        "coordinates": [
          57.6111846,
          38.3346167
        ]
      }
    },
    {
      "type": "Feature",
      "id": "node/3883327243",
      "properties": {
        "name": "Rzd. No 1",
        "name:ru": "Рзд № 1",
        "public_transport": "station",
        "railway": "station",
        "id": "node/3883327243"
      },
      "geometry": {
        "type": "Point",
        "coordinates": [
          58.215936,
          38.1379901
        ]
      }
    },
    {
      "type": "Feature",
      "id": "node/3883328971",
      "properties": {
        "name": "Babarap",
        "railway": "station",
        "id": "node/3883328971"
      },
      "geometry": {
        "type": "Point",
        "coordinates": [
          58.1437592,
          38.0861367
        ]
      }
    },
    {
      "type": "Feature",
      "id": "node/3883339843",
      "properties": {
        "name": "Şasenem",
        "name:ru": "Шасенем",
        "railway": "station",
        "wikidata": "Q98716762",
        "id": "node/3883339843"
      },
      "geometry": {
        "type": "Point",
        "coordinates": [
          59.3840837,
          41.6514436
        ]
      }
    },
    {
      "type": "Feature",
      "id": "node/3883363583",
      "properties": {
        "name": "Görogly",
        "name:en": "Gerogly",
        "name:ru": "Героглы",
        "public_transport": "station",
        "railway": "station",
        "id": "node/3883363583"
      },
      "geometry": {
        "type": "Point",
        "coordinates": [
          59.9297939,
          41.7231918
        ]
      }
    },
    {
      "type": "Feature",
      "id": "node/3884317652",
      "properties": {
        "name": "Mian",
        "railway": "station",
        "id": "node/3884317652"
      },
      "geometry": {
        "type": "Point",
        "coordinates": [
          59.2058634,
          41.6437717
        ]
      }
    },
    {
      "type": "Feature",
      "id": "node/3884321155",
      "properties": {
        "name": "Rzd. No 5",
        "railway": "station",
        "id": "node/3884321155"
      },
      "geometry": {
        "type": "Point",
        "coordinates": [
          58.7311405,
          41.3257808
        ]
      }
    },
    {
      "type": "Feature",
      "id": "node/3884323307",
      "properties": {
        "name": "Oguzabat",
        "name:ru": "Огузабат",
        "railway": "station",
        "id": "node/3884323307"
      },
      "geometry": {
        "type": "Point",
        "coordinates": [
          58.6058675,
          41.1431671
        ]
      }
    },
    {
      "type": "Feature",
      "id": "node/3884475565",
      "properties": {
        "name": "Akýaýla",
        "name:ru": "Акяйла",
        "name:tk": "Akýaýla",
        "public_transport": "station",
        "railway": "station",
        "train": "yes",
        "id": "node/3884475565"
      },
      "geometry": {
        "type": "Point",
        "coordinates": [
          54.6296231,
          37.4636793
        ]
      }
    },
    {
      "type": "Feature",
      "id": "node/3884567919",
      "properties": {
        "name": "Rzd. No 97",
        "name:ru": "Разъезд № 87",
        "railway": "station",
        "id": "node/3884567919"
      },
      "geometry": {
        "type": "Point",
        "coordinates": [
          58.6709628,
          37.8704492
        ]
      }
    },
    {
      "type": "Feature",
      "id": "node/3884580223",
      "properties": {
        "name": "Rzd. No 79",
        "name:ru": "Разъезд № 79",
        "railway": "station",
        "id": "node/3884580223"
      },
      "geometry": {
        "type": "Point",
        "coordinates": [
          59.8929518,
          37.2085975
        ]
      }
    },
    {
      "type": "Feature",
      "id": "node/3884581999",
      "properties": {
        "name": "Rzd. No 76",
        "name:ru": "Разъезд № 76",
        "railway": "station",
        "id": "node/3884581999"
      },
      "geometry": {
        "type": "Point",
        "coordinates": [
          60.136201,
          37.224205
        ]
      }
    },
    {
      "type": "Feature",
      "id": "node/3884851795",
      "properties": {
        "name": "Km 5",
        "railway": "halt",
        "id": "node/3884851795"
      },
      "geometry": {
        "type": "Point",
        "coordinates": [
          61.8314089,
          37.5704071
        ]
      }
    },
    {
      "type": "Feature",
      "id": "node/3884860849",
      "properties": {
        "name": "Km 92",
        "railway": "halt",
        "id": "node/3884860849"
      },
      "geometry": {
        "type": "Point",
        "coordinates": [
          62.4591035,
          37.0320941
        ]
      }
    },
    {
      "type": "Feature",
      "id": "node/3884864286",
      "properties": {
        "name": "Km 87",
        "railway": "halt",
        "id": "node/3884864286"
      },
      "geometry": {
        "type": "Point",
        "coordinates": [
          62.4539122,
          37.0874629
        ]
      }
    },
    {
      "type": "Feature",
      "id": "node/3884864889",
      "properties": {
        "name": "Km 97",
        "railway": "halt",
        "id": "node/3884864889"
      },
      "geometry": {
        "type": "Point",
        "coordinates": [
          62.4501244,
          36.9831401
        ]
      }
    },
    {
      "type": "Feature",
      "id": "node/3885114861",
      "properties": {
        "name": "Km 140",
        "railway": "halt",
        "id": "node/3885114861"
      },
      "geometry": {
        "type": "Point",
        "coordinates": [
          62.4775219,
          36.6721819
        ]
      }
    },
    {
      "type": "Feature",
      "id": "node/3885122996",
      "properties": {
        "name": "Km 160",
        "railway": "halt",
        "id": "node/3885122996"
      },
      "geometry": {
        "type": "Point",
        "coordinates": [
          62.5867838,
          36.5026211
        ]
      }
    },
    {
      "type": "Feature",
      "id": "node/3885130306",
      "properties": {
        "name": "Km 271",
        "railway": "halt",
        "id": "node/3885130306"
      },
      "geometry": {
        "type": "Point",
        "coordinates": [
          62.5323244,
          35.592422
        ]
      }
    },
    {
      "type": "Feature",
      "id": "node/3885140316",
      "properties": {
        "name": "Km 302",
        "railway": "halt",
        "id": "node/3885140316"
      },
      "geometry": {
        "type": "Point",
        "coordinates": [
          62.401595,
          35.394425
        ]
      }
    },
    {
      "type": "Feature",
      "id": "node/3885150719",
      "properties": {
        "name": "Km 296",
        "railway": "halt",
        "id": "node/3885150719"
      },
      "geometry": {
        "type": "Point",
        "coordinates": [
          62.3981388,
          35.4377965
        ]
      }
    },
    {
      "type": "Feature",
      "id": "node/3885156287",
      "properties": {
        "name": "Rzd. No 199",
        "name:ru": "Разъезд № 199",
        "railway": "station",
        "id": "node/3885156287"
      },
      "geometry": {
        "type": "Point",
        "coordinates": [
          62.4031382,
          35.3389255
        ]
      }
    },
    {
      "type": "Feature",
      "id": "node/3885349297",
      "properties": {
        "name": "Rzd. No 54",
        "name:ru": "Разъезд № 54",
        "railway": "station",
        "id": "node/3885349297"
      },
      "geometry": {
        "type": "Point",
        "coordinates": [
          63.1082715,
          38.4280861
        ]
      }
    },
    {
      "type": "Feature",
      "id": "node/3885729051",
      "properties": {
        "name": "Rzd. No 170",
        "name:ru": "Разъезд № 170",
        "railway": "station",
        "id": "node/3885729051"
      },
      "geometry": {
        "type": "Point",
        "coordinates": [
          62.7724788,
          39.535263
        ]
      }
    },
    {
      "type": "Feature",
      "id": "node/3885737787",
      "properties": {
        "name": "Rzd. No 171",
        "name:ru": "Разъезд № 171",
        "railway": "halt",
        "id": "node/3885737787"
      },
      "geometry": {
        "type": "Point",
        "coordinates": [
          62.6596994,
          39.6591112
        ]
      }
    },
    {
      "type": "Feature",
      "id": "node/3885821435",
      "properties": {
        "name": "Rzd. No 174",
        "name:ru": "Разъезд № 174",
        "railway": "station",
        "id": "node/3885821435"
      },
      "geometry": {
        "type": "Point",
        "coordinates": [
          62.0126943,
          40.678742
        ]
      }
    },
    {
      "type": "Feature",
      "id": "node/3885978840",
      "properties": {
        "name": "Saýat",
        "name:ru": "Саят",
        "railway": "station",
        "id": "node/3885978840"
      },
      "geometry": {
        "type": "Point",
        "coordinates": [
          63.8559864,
          38.7287782
        ]
      }
    },
    {
      "type": "Feature",
      "id": "node/3885992911",
      "properties": {
        "esr:user": "749301",
        "name": "Azatlyk",
        "name:ru": "Азатлык",
        "railway": "station",
        "uic_ref": "6700242",
        "id": "node/3885992911"
      },
      "geometry": {
        "type": "Point",
        "coordinates": [
          65.3352438,
          37.7741137
        ]
      }
    },
    {
      "type": "Feature",
      "id": "node/3885994560",
      "properties": {
        "name": "Km 4234",
        "railway": "halt",
        "id": "node/3885994560"
      },
      "geometry": {
        "type": "Point",
        "coordinates": [
          65.3104899,
          37.9418532
        ]
      }
    },
    {
      "type": "Feature",
      "id": "node/3885994647",
      "properties": {
        "esr:user": "749206",
        "name": "Kerkiçi",
        "name:ru": "Керкиче",
        "public_transport": "station",
        "railway": "station",
        "uic_ref": "6700241",
        "id": "node/3885994647"
      },
      "geometry": {
        "type": "Point",
        "coordinates": [
          65.2421631,
          37.8511842
        ]
      }
    },
    {
      "type": "Feature",
      "id": "node/3886001041",
      "properties": {
        "name": "Km 4255",
        "railway": "halt",
        "id": "node/3886001041"
      },
      "geometry": {
        "type": "Point",
        "coordinates": [
          65.3022641,
          37.8183994
        ]
      }
    },
    {
      "type": "Feature",
      "id": "node/3886003308",
      "properties": {
        "name": "Km 4265",
        "railway": "halt",
        "id": "node/3886003308"
      },
      "geometry": {
        "type": "Point",
        "coordinates": [
          65.3492908,
          37.7685377
        ]
      }
    },
    {
      "type": "Feature",
      "id": "node/3886004619",
      "properties": {
        "alt_name": "Borugchi",
        "esr:user": "749403",
        "name": "Burguçy",
        "name:en": "Burguchy",
        "name:ru": "Бургучи",
        "name:tk": "Burguçy",
        "railway": "station",
        "uic_ref": "6700243",
        "id": "node/3886004619"
      },
      "geometry": {
        "type": "Point",
        "coordinates": [
          65.4092831,
          37.7337879
        ]
      }
    },
    {
      "type": "Feature",
      "id": "node/3886006313",
      "properties": {
        "name": "Km 4275",
        "railway": "halt",
        "id": "node/3886006313"
      },
      "geometry": {
        "type": "Point",
        "coordinates": [
          65.4795741,
          37.7267549
        ]
      }
    },
    {
      "type": "Feature",
      "id": "node/3886013224",
      "properties": {
        "name": "Km 4294",
        "railway": "halt",
        "id": "node/3886013224"
      },
      "geometry": {
        "type": "Point",
        "coordinates": [
          65.6413747,
          37.638629
        ]
      }
    },
    {
      "type": "Feature",
      "id": "node/3886018640",
      "properties": {
        "name": "Km 4282",
        "railway": "halt",
        "id": "node/3886018640"
      },
      "geometry": {
        "type": "Point",
        "coordinates": [
          65.5355288,
          37.7089479
        ]
      }
    },
    {
      "type": "Feature",
      "id": "node/3886020849",
      "properties": {
        "esr:user": "749507",
        "name": "Daşrabat",
        "name:ru": "Дашрабат",
        "name:tk": "Daşrabat",
        "railway": "station",
        "uic_ref": "6700244",
        "id": "node/3886020849"
      },
      "geometry": {
        "type": "Point",
        "coordinates": [
          65.603891,
          37.6718997
        ]
      }
    },
    {
      "type": "Feature",
      "id": "node/3886246584",
      "properties": {
        "esr:user": "758402",
        "name": "Gubadag",
        "name:ru": "Кубадаг",
        "public_transport": "station",
        "railway": "station",
        "id": "node/3886246584"
      },
      "geometry": {
        "type": "Point",
        "coordinates": [
          59.9682958,
          42.0660619
        ]
      }
    },
    {
      "type": "Feature",
      "id": "node/3886255966",
      "properties": {
        "name": "Km 486",
        "railway": "halt",
        "id": "node/3886255966"
      },
      "geometry": {
        "type": "Point",
        "coordinates": [
          59.8156416,
          42.0310949
        ]
      }
    },
    {
      "type": "Feature",
      "id": "node/3886257529",
      "properties": {
        "name": "Rzd. No 178",
        "name:ru": "Разъезд № 178",
        "railway": "station",
        "id": "node/3886257529"
      },
      "geometry": {
        "type": "Point",
        "coordinates": [
          59.831295,
          42.0138398
        ]
      }
    },
    {
      "type": "Feature",
      "id": "node/3886602157",
      "properties": {
        "esr:user": "759208",
        "name": "Dostluk",
        "name:ru": "Достлук",
        "railway": "station",
        "id": "node/3886602157"
      },
      "geometry": {
        "type": "Point",
        "coordinates": [
          59.2675319,
          42.2748459
        ]
      }
    },
    {
      "type": "Feature",
      "id": "node/3886606914",
      "properties": {
        "addr:street": "Daşoguz-Köneürgenç Garaýoly",
        "esr:user": "758703",
        "name": "Maslahat",
        "name:ru": "Маслахат",
        "public_transport": "station",
        "railway": "station",
        "id": "node/3886606914"
      },
      "geometry": {
        "type": "Point",
        "coordinates": [
          59.3604838,
          42.254704
        ]
      }
    },
    {
      "type": "Feature",
      "id": "node/3886643434",
      "properties": {
        "alt_name": "Khauz-Khan",
        "name": "Howuzhan",
        "railway": "station",
        "id": "node/3886643434"
      },
      "geometry": {
        "type": "Point",
        "coordinates": [
          61.0559643,
          37.156006
        ]
      }
    },
    {
      "type": "Feature",
      "id": "node/3889181263",
      "properties": {
        "name": "Ak Il",
        "railway": "station",
        "id": "node/3889181263"
      },
      "geometry": {
        "type": "Point",
        "coordinates": [
          55.5356218,
          39.4283872
        ]
      }
    },
    {
      "type": "Feature",
      "id": "node/3889184092",
      "properties": {
        "alt_name": "Arzuv",
        "name": "Arzuw",
        "railway": "station",
        "id": "node/3889184092"
      },
      "geometry": {
        "type": "Point",
        "coordinates": [
          55.684052,
          39.5754127
        ]
      }
    },
    {
      "type": "Feature",
      "id": "node/3889185758",
      "properties": {
        "name": "Burgun",
        "public_transport": "station",
        "railway": "station",
        "id": "node/3889185758"
      },
      "geometry": {
        "type": "Point",
        "coordinates": [
          55.7930597,
          39.9488177
        ]
      }
    },
    {
      "type": "Feature",
      "id": "node/3889194703",
      "properties": {
        "esr:user": "754308",
        "name": "Gyzylgaýa",
        "name:ru": "Гызылгая",
        "public_transport": "station",
        "railway": "station",
        "id": "node/3889194703"
      },
      "geometry": {
        "type": "Point",
        "coordinates": [
          55.3992759,
          40.5364982
        ]
      }
    },
    {
      "type": "Feature",
      "id": "node/3889198322",
      "properties": {
        "fixme": "name",
        "name": "Uzboý",
        "public_transport": "station",
        "railway": "station",
        "id": "node/3889198322"
      },
      "geometry": {
        "type": "Point",
        "coordinates": [
          55.5751687,
          40.1315661
        ]
      }
    },
    {
      "type": "Feature",
      "id": "node/3889207121",
      "properties": {
        "alt_name": "Avlamish",
        "name": "Awlamyş",
        "public_transport": "station",
        "railway": "station",
        "id": "node/3889207121"
      },
      "geometry": {
        "type": "Point",
        "coordinates": [
          55.119265,
          40.8377088
        ]
      }
    },
    {
      "type": "Feature",
      "id": "node/3889207887",
      "properties": {
        "name": "Hazar",
        "railway": "station",
        "id": "node/3889207887"
      },
      "geometry": {
        "type": "Point",
        "coordinates": [
          54.5043321,
          41.3972629
        ]
      }
    },
    {
      "type": "Feature",
      "id": "node/3889208111",
      "properties": {
        "fixme": "name",
        "name": "Kuwwat",
        "railway": "station",
        "id": "node/3889208111"
      },
      "geometry": {
        "type": "Point",
        "coordinates": [
          54.3365551,
          41.5774805
        ]
      }
    },
    {
      "type": "Feature",
      "id": "node/3889208620",
      "properties": {
        "fixme": "name",
        "name": "Berkarar",
        "railway": "station",
        "id": "node/3889208620"
      },
      "geometry": {
        "type": "Point",
        "coordinates": [
          54.9149744,
          41.0762223
        ]
      }
    },
    {
      "type": "Feature",
      "id": "node/3889210530",
      "properties": {
        "name": "Polatly",
        "public_transport": "station",
        "railway": "station",
        "id": "node/3889210530"
      },
      "geometry": {
        "type": "Point",
        "coordinates": [
          54.0716946,
          41.9173514
        ]
      }
    },
    {
      "type": "Feature",
      "id": "node/3889211088",
      "properties": {
        "name": "Bitaraplyk",
        "railway": "station",
        "id": "node/3889211088"
      },
      "geometry": {
        "type": "Point",
        "coordinates": [
          54.7185824,
          41.2592715
        ]
      }
    },
    {
      "type": "Feature",
      "id": "node/3889214045",
      "properties": {
        "name": "Şanly",
        "public_transport": "station",
        "railway": "station",
        "id": "node/3889214045"
      },
      "geometry": {
        "type": "Point",
        "coordinates": [
          53.8437866,
          42.1987691
        ]
      }
    },
    {
      "type": "Feature",
      "id": "node/3889214463",
      "properties": {
        "name": "Parahat",
        "public_transport": "station",
        "railway": "station",
        "id": "node/3889214463"
      },
      "geometry": {
        "type": "Point",
        "coordinates": [
          54.2186913,
          41.7425168
        ]
      }
    },
    {
      "type": "Feature",
      "id": "node/3889407691",
      "properties": {
        "name": "Arsaribaba",
        "railway": "station",
        "id": "node/3889407691"
      },
      "geometry": {
        "type": "Point",
        "coordinates": [
          55.0399089,
          40.9460967
        ]
      }
    },
    {
      "type": "Feature",
      "id": "node/4447878494",
      "properties": {
        "addr:city": "Bereket",
        "name": "Bereket 2",
        "operator": "Türkmen Demir Ýollary",
        "public_transport": "station",
        "railway": "station",
        "id": "node/4447878494"
      },
      "geometry": {
        "type": "Point",
        "coordinates": [
          55.4897596,
          39.2674807
        ]
      }
    },
    {
      "type": "Feature",
      "id": "node/4528661445",
      "properties": {
        "name": "Gulistan",
        "name:ru": "Гулистан",
        "name:tk": "Gülistan",
        "public_transport": "station",
        "railway": "station",
        "id": "node/4528661445"
      },
      "geometry": {
        "type": "Point",
        "coordinates": [
          64.9776349,
          37.473835
        ]
      }
    },
    {
      "type": "Feature",
      "id": "node/5430303426",
      "properties": {
        "building": "no",
        "description": "Temporary train stop built to handle special trains for the TAPI ceremony held February 23, 2018.  Stop has no name and consists of a parking lot and high curb to allow passengers to disembark from the railcars.",
        "public_transport": "station",
        "railway": "halt",
        "train": "yes",
        "id": "node/5430303426"
      },
      "geometry": {
        "type": "Point",
        "coordinates": [
          62.4097347,
          35.4698609
        ]
      }
    },
    {
      "type": "Feature",
      "id": "node/5611073056",
      "properties": {
        "railway": "station",
        "id": "node/5611073056"
      },
      "geometry": {
        "type": "Point",
        "coordinates": [
          64.0825653,
          38.9079076
        ]
      }
    },
    {
      "type": "Feature",
      "id": "node/5611073084",
      "properties": {
        "railway": "station",
        "id": "node/5611073084"
      },
      "geometry": {
        "type": "Point",
        "coordinates": [
          63.8582736,
          39.0089843
        ]
      }
    },
    {
      "type": "Feature",
      "id": "node/5658728026",
      "properties": {
        "addr:city": "Dashoguz",
        "addr:street": "Atamyrat Nyýazow (Wokzal) köçesi",
        "name": "Daşoguz",
        "name:en": "Dashoguz",
        "name:ru": "Дашогуз",
        "name:tk": "Daşoguz",
        "public_transport": "stop_position",
        "railway": "station",
        "train": "yes",
        "wikidata": "Q98716764",
        "id": "node/5658728026"
      },
      "geometry": {
        "type": "Point",
        "coordinates": [
          59.9767505,
          41.849842
        ]
      }
    },
    {
      "type": "Feature",
      "id": "node/5920080731",
      "properties": {
        "public_transport": "stop_position",
        "railway": "stop",
        "train": "yes",
        "id": "node/5920080731"
      },
      "geometry": {
        "type": "Point",
        "coordinates": [
          62.8909521,
          38.1969766
        ]
      }
    },
    {
      "type": "Feature",
      "id": "node/7659925527",
      "properties": {
        "addr:city": "Börme geňeşligi",
        "name": "Rzd. No. 103",
        "name:ru": "Разъезд №103",
        "name:tk": "103-nji duralga",
        "public_transport": "station",
        "railway": "station",
        "train": "yes",
        "id": "node/7659925527"
      },
      "geometry": {
        "type": "Point",
        "coordinates": [
          56.9868876,
          38.6522137
        ]
      }
    },
    {
      "type": "Feature",
      "id": "node/8228056715",
      "properties": {
        "alt_name": "Янгаджа",
        "name": "Ýangaja",
        "name:ru": "Янгыджа",
        "name:tk": "Ýangaja",
        "public_transport": "station",
        "railway": "station",
        "id": "node/8228056715"
      },
      "geometry": {
        "type": "Point",
        "coordinates": [
          53.3420025,
          40.0206315
        ]
      }
    },
    {
      "type": "Feature",
      "id": "node/8228911027",
      "properties": {
        "name": "Belek-Turkmenskiy",
        "name:ru": "Белек-Туркменский",
        "public_transport": "station",
        "railway": "station",
        "id": "node/8228911027"
      },
      "geometry": {
        "type": "Point",
        "coordinates": [
          53.8403837,
          39.9328342
        ]
      }
    },
    {
      "type": "Feature",
      "id": "node/8230409087",
      "properties": {
        "name": "Yagman",
        "name:ru": "Ягман",
        "name:uk": "Яґман",
        "railway": "halt",
        "id": "node/8230409087"
      },
      "geometry": {
        "type": "Point",
        "coordinates": [
          54.1322995,
          39.8138084
        ]
      }
    },
    {
      "type": "Feature",
      "id": "node/8241606910",
      "properties": {
        "name": "Serdar",
        "name:ja": "セルダル",
        "name:ru": "Сердар",
        "public_transport": "station",
        "railway": "station",
        "id": "node/8241606910"
      },
      "geometry": {
        "type": "Point",
        "coordinates": [
          56.2732732,
          38.9794374
        ]
      }
    },
    {
      "type": "Feature",
      "id": "node/8416566590",
      "properties": {
        "name": "Ymamnazar",
        "public_transport": "stop_position",
        "railway": "stop",
        "train": "yes",
        "id": "node/8416566590"
      },
      "geometry": {
        "type": "Point",
        "coordinates": [
          65.2290247,
          37.2631669
        ]
      }
    },
    {
      "type": "Feature",
      "id": "node/8895975402",
      "properties": {
        "addr:country": "TM",
        "addr:district": "Ak bugdaý",
        "addr:state": "Ahal",
        "name": "Ýaşlyk",
        "name:en": "Yashlyk",
        "name:ru": "Яшлык",
        "public_transport": "station",
        "railway": "station",
        "id": "node/8895975402"
      },
      "geometry": {
        "type": "Point",
        "coordinates": [
          58.9007619,
          37.7692176
        ]
      }
    },
    {
      "type": "Feature",
      "id": "node/8895975404",
      "properties": {
        "addr:city": "Ashgabat",
        "addr:housenumber": "1",
        "addr:street": "Gurban Soltan Eje (2043)",
        "name": "Aşgabat",
        "name:en": "Ashgabat",
        "name:ru": "Ашхабад",
        "name:tk": "Aşgabat",
        "public_transport": "station",
        "railway": "station",
        "wikidata": "Q4073594",
        "id": "node/8895975404"
      },
      "geometry": {
        "type": "Point",
        "coordinates": [
          58.3961038,
          37.943221
        ]
      }
    },
    {
      "type": "Feature",
      "id": "node/8895992845",
      "properties": {
        "addr:city": "Duşak",
        "addr:country": "TM",
        "addr:district": "Kaka",
        "addr:place": "Duşak",
        "addr:state": "Ahal",
        "name": "Duşak",
        "name:en": "Dushak",
        "name:ru": "Душак",
        "name:tk": "Duşak",
        "public_transport": "station",
        "railway": "station",
        "id": "node/8895992845"
      },
      "geometry": {
        "type": "Point",
        "coordinates": [
          60.0314401,
          37.2005945
        ]
      }
    },
    {
      "type": "Feature",
      "id": "node/8895996369",
      "properties": {
        "addr:country": "TM",
        "addr:district": "Ak bugdaý",
        "addr:state": "Ahal",
        "name": "Berkarar",
        "name:en": "Berkarar",
        "name:ru": "Беркарар",
        "old_name": "Babadurmaz",
        "public_transport": "station",
        "railway": "station",
        "wikidata": "Q98716678",
        "id": "node/8895996369"
      },
      "geometry": {
        "type": "Point",
        "coordinates": [
          59.1408486,
          37.640386
        ]
      }
    },
    {
      "type": "Feature",
      "id": "node/8896008349",
      "properties": {
        "addr:city": "Änew",
        "addr:street": "Gurban Soltan Eje (2043)",
        "alt_name": "Annau",
        "alt_name_1": "Anev",
        "name": "Änew",
        "name:ru": "Анев",
        "public_transport": "station",
        "railway": "station",
        "id": "node/8896008349"
      },
      "geometry": {
        "type": "Point",
        "coordinates": [
          58.4997874,
          37.9118535
        ]
      }
    },
    {
      "type": "Feature",
      "id": "node/8896009275",
      "properties": {
        "addr:country": "TM",
        "addr:district": "Kaka",
        "addr:state": "Ahal",
        "name": "Kaka",
        "name:en": "Kaka",
        "name:ru": "Кака",
        "public_transport": "station",
        "railway": "station",
        "id": "node/8896009275"
      },
      "geometry": {
        "type": "Point",
        "coordinates": [
          59.6179508,
          37.3439517
        ]
      }
    },
    {
      "type": "Feature",
      "id": "node/8896035430",
      "properties": {
        "addr:city": "Turkmenabat",
        "addr:street": "S.A.Niyazow kocesi",
        "name": "Türkmenabat",
        "name:en": "Türkmenabat",
        "name:ru": "Туркменабат",
        "public_transport": "station",
        "railway": "station",
        "id": "node/8896035430"
      },
      "geometry": {
        "type": "Point",
        "coordinates": [
          63.5701837,
          39.102635
        ]
      }
    },
    {
      "type": "Feature",
      "id": "node/8896037632",
      "properties": {
        "addr:city": "Bagtyýarlyk",
        "name": "Bagtyýarlyk (Üçaji)",
        "name:en": "Bagtyyarlyk",
        "name:ru": "Учаджи",
        "old_name": "Üçaji",
        "public_transport": "station",
        "railway": "station",
        "id": "node/8896037632"
      },
      "geometry": {
        "type": "Point",
        "coordinates": [
          62.803156,
          38.0897555
        ]
      }
    },
    {
      "type": "Feature",
      "id": "node/8896042393",
      "properties": {
        "addr:city": "Kerki",
        "name": "Kerki (Atamyrat)",
        "name:ja": "アタムラート",
        "name:ru": "Керки (Атамурат)",
        "name:tk": "Kerki (Atamyrat)",
        "public_transport": "station",
        "railway": "station",
        "id": "node/8896042393"
      },
      "geometry": {
        "type": "Point",
        "coordinates": [
          65.1755275,
          37.8167641
        ]
      }
    },
    {
      "type": "Feature",
      "id": "node/8896042774",
      "properties": {
        "name": "Halaç",
        "name:en": "Halach",
        "name:ru": "Халач",
        "name:tk": "Halaç",
        "public_transport": "station",
        "railway": "station",
        "id": "node/8896042774"
      },
      "geometry": {
        "type": "Point",
        "coordinates": [
          64.8658461,
          38.0586494
        ]
      }
    },
    {
      "type": "Feature",
      "id": "node/8896057139",
      "properties": {
        "name": "Mukry",
        "name:ru": "Мукры",
        "name:tr": "Mukry",
        "public_transport": "station",
        "railway": "station",
        "train": "yes",
        "id": "node/8896057139"
      },
      "geometry": {
        "type": "Point",
        "coordinates": [
          65.7325818,
          37.5989449
        ]
      }
    },
    {
      "type": "Feature",
      "id": "node/8897270355",
      "properties": {
        "name": "Kelif (Keleft)",
        "name:ru": "Келиф",
        "public_transport": "station",
        "railway": "station",
        "id": "node/8897270355"
      },
      "geometry": {
        "type": "Point",
        "coordinates": [
          66.317419,
          37.363558
        ]
      }
    },
    {
      "type": "Feature",
      "id": "node/8910635472",
      "properties": {
        "name": "Gurbansoltan eje",
        "name:ru": "Гурбансолтан",
        "public_transport": "station",
        "railway": "station",
        "wikidata": "Q98716763",
        "id": "node/8910635472"
      },
      "geometry": {
        "type": "Point",
        "coordinates": [
          59.6251605,
          41.7480118
        ]
      }
    },
    {
      "type": "Feature",
      "id": "node/9191743021",
      "properties": {
        "esr:user": "757401",
        "name": "Seýdi",
        "name:ru": "Сейди",
        "old_name": "Neftezavodsk",
        "public_transport": "station",
        "railway": "station",
        "uic_ref": "6700718",
        "wikidata": "Q98716746",
        "id": "node/9191743021"
      },
      "geometry": {
        "type": "Point",
        "coordinates": [
          62.8898098,
          39.4095062
        ]
      }
    }
  ]
}