{
  "type": "FeatureCollection",
  "features": [
    {
      "type": "Feature",
      "id": "node/87863868",
      "properties": {
        "name": "Bogazkopru Muselles (364+074)",
        "railway": "halt",
        "id": "node/87863868"
      },
      "geometry": {
        "type": "Point",
        "coordinates": [
          35.3138766,
          38.7522963
        ]
      }
    },
    {
      "type": "Feature",
      "id": "node/102746857",
      "properties": {
        "name": "Meydan Gar",
        "railway": "station",
        "wheelchair": "no",
        "id": "node/102746857"
      },
      "geometry": {
        "type": "Point",
        "coordinates": [
          32.527418,
          38.2394728
        ]
      }
    },
    {
      "type": "Feature",
      "id": "node/102754993",
      "properties": {
        "name": "Gökçayır Gar",
        "railway": "station",
        "id": "node/102754993"
      },
      "geometry": {
        "type": "Point",
        "coordinates": [
          31.35834,
          38.4261396
        ]
      }
    },
    {
      "type": "Feature",
      "id": "node/116709425",
      "properties": {
        "name": "Osmancik",
        "railway": "halt",
        "wikidata": "Q55627946",
        "id": "node/116709425"
      },
      "geometry": {
        "type": "Point",
        "coordinates": [
          34.3661317,
          37.6075225
        ]
      }
    },
    {
      "type": "Feature",
      "id": "node/125326513",
      "properties": {
        "name": "Osmaniye Garı",
        "railway": "station",
        "id": "node/125326513"
      },
      "geometry": {
        "type": "Point",
        "coordinates": [
          36.2373047,
          37.0797819
        ]
      }
    },
    {
      "type": "Feature",
      "id": "node/130028657",
      "properties": {
        "name": "Böğecik İstasyonu",
        "railway": "halt",
        "id": "node/130028657"
      },
      "geometry": {
        "type": "Point",
        "coordinates": [
          33.8775595,
          37.4550439
        ]
      }
    },
    {
      "type": "Feature",
      "id": "node/130194173",
      "properties": {
        "name": "Serçehan Istasyon",
        "railway": "station",
        "id": "node/130194173"
      },
      "geometry": {
        "type": "Point",
        "coordinates": [
          41.0710821,
          37.1048812
        ]
      }
    },
    {
      "type": "Feature",
      "id": "node/130194329",
      "properties": {
        "name": "Şenyurt Istasyon",
        "railway": "station",
        "id": "node/130194329"
      },
      "geometry": {
        "type": "Point",
        "coordinates": [
          40.6453781,
          37.0783818
        ]
      }
    },
    {
      "type": "Feature",
      "id": "node/130194636",
      "properties": {
        "name": "Sayarlı Istasyon",
        "railway": "station",
        "id": "node/130194636"
      },
      "geometry": {
        "type": "Point",
        "coordinates": [
          39.6251332,
          36.724267
        ]
      }
    },
    {
      "type": "Feature",
      "id": "node/130197880",
      "properties": {
        "name": "Akçakoyunlu İstasyonu",
        "railway": "halt",
        "id": "node/130197880"
      },
      "geometry": {
        "type": "Point",
        "coordinates": [
          37.6519191,
          36.7451653
        ]
      }
    },
    {
      "type": "Feature",
      "id": "node/130245541",
      "properties": {
        "electrified": "no",
        "gauge": "1435",
        "name": "İzban Torbalı İstasyonu",
        "railway": "station",
        "source": "bing",
        "wikidata": "Q16957730",
        "wikipedia": "tr:Torbalı Tren İstasyonu",
        "id": "node/130245541"
      },
      "geometry": {
        "type": "Point",
        "coordinates": [
          27.3472489,
          38.1700024
        ]
      }
    },
    {
      "type": "Feature",
      "id": "node/134974766",
      "properties": {
        "name": "Yahniler",
        "railway": "halt",
        "source": "bing",
        "id": "node/134974766"
      },
      "geometry": {
        "type": "Point",
        "coordinates": [
          43.32968,
          40.7164293
        ]
      }
    },
    {
      "type": "Feature",
      "id": "node/142218952",
      "properties": {
        "electrified": "no",
        "gauge": "1435",
        "name": "Afyonkarahisar Ali Çetinkaya Garı",
        "public_transport": "station",
        "railway": "station",
        "train": "yes",
        "id": "node/142218952"
      },
      "geometry": {
        "type": "Point",
        "coordinates": [
          30.5523988,
          38.7641643
        ]
      }
    },
    {
      "type": "Feature",
      "id": "node/142371599",
      "properties": {
        "name": "Sart",
        "railway": "halt",
        "id": "node/142371599"
      },
      "geometry": {
        "type": "Point",
        "coordinates": [
          28.0427693,
          38.4971815
        ]
      }
    },
    {
      "type": "Feature",
      "id": "node/142377577",
      "properties": {
        "name": "Killik",
        "railway": "halt",
        "id": "node/142377577"
      },
      "geometry": {
        "type": "Point",
        "coordinates": [
          28.6143204,
          38.3611486
        ]
      }
    },
    {
      "type": "Feature",
      "id": "node/142421346",
      "properties": {
        "name": "Akşehir",
        "public_transport": "station",
        "railway": "station",
        "train": "yes",
        "wheelchair": "no",
        "id": "node/142421346"
      },
      "geometry": {
        "type": "Point",
        "coordinates": [
          31.4416191,
          38.3702838
        ]
      }
    },
    {
      "type": "Feature",
      "id": "node/156467517",
      "properties": {
        "name": "Incesu durağı",
        "railway": "halt",
        "id": "node/156467517"
      },
      "geometry": {
        "type": "Point",
        "coordinates": [
          30.2668995,
          38.0290548
        ]
      }
    },
    {
      "type": "Feature",
      "id": "node/158529657",
      "properties": {
        "name": "Başpınar",
        "network": "TR-railway",
        "operator": "TCDD",
        "public_transport": "stop_position",
        "railway": "station",
        "source": "Bing",
        "train": "yes",
        "id": "node/158529657"
      },
      "geometry": {
        "type": "Point",
        "coordinates": [
          37.3227411,
          37.1691549
        ]
      }
    },
    {
      "type": "Feature",
      "id": "node/158586720",
      "properties": {
        "name": "Sevindik",
        "railway": "halt",
        "id": "node/158586720"
      },
      "geometry": {
        "type": "Point",
        "coordinates": [
          36.9618919,
          37.3682702
        ]
      }
    },
    {
      "type": "Feature",
      "id": "node/158595627",
      "properties": {
        "name": "Kahramanmaraş Gar",
        "public_transport": "station",
        "railway": "station",
        "train": "yes",
        "id": "node/158595627"
      },
      "geometry": {
        "type": "Point",
        "coordinates": [
          36.9305905,
          37.5640034
        ]
      }
    },
    {
      "type": "Feature",
      "id": "node/165991741",
      "properties": {
        "name": "Başçeşme Durağı",
        "railway": "halt",
        "usage": "main",
        "id": "node/165991741"
      },
      "geometry": {
        "type": "Point",
        "coordinates": [
          29.549254,
          37.8336474
        ]
      }
    },
    {
      "type": "Feature",
      "id": "node/165993895",
      "properties": {
        "name": "Bozkurt Istasyonu",
        "public_transport": "station",
        "railway": "station",
        "train": "yes",
        "usage": "main",
        "id": "node/165993895"
      },
      "geometry": {
        "type": "Point",
        "coordinates": [
          29.6126454,
          37.8273713
        ]
      }
    },
    {
      "type": "Feature",
      "id": "node/166012795",
      "properties": {
        "name": "Çardak Istasyonu",
        "public_transport": "station",
        "railway": "station",
        "train": "yes",
        "usage": "main",
        "id": "node/166012795"
      },
      "geometry": {
        "type": "Point",
        "coordinates": [
          29.6809034,
          37.8216054
        ]
      }
    },
    {
      "type": "Feature",
      "id": "node/168129480",
      "properties": {
        "name": "Manisa Garı",
        "network": "TR-railway",
        "operator": "tcdd",
        "public_transport": "stop_position",
        "railway": "station",
        "train": "yes",
        "id": "node/168129480"
      },
      "geometry": {
        "type": "Point",
        "coordinates": [
          27.4352439,
          38.6213949
        ]
      }
    },
    {
      "type": "Feature",
      "id": "node/168144907",
      "properties": {
        "name": "İzban Menemen İstasyonu",
        "operator": "izban",
        "public_transport": "stop_position",
        "railway": "station",
        "train": "yes",
        "tram": "no",
        "id": "node/168144907"
      },
      "geometry": {
        "type": "Point",
        "coordinates": [
          27.0765637,
          38.6031683
        ]
      }
    },
    {
      "type": "Feature",
      "id": "node/168181327",
      "properties": {
        "name": "Egekent 2",
        "public_transport": "station",
        "railway": "station",
        "wikidata": "Q5347744",
        "id": "node/168181327"
      },
      "geometry": {
        "type": "Point",
        "coordinates": [
          27.0443595,
          38.5605958
        ]
      }
    },
    {
      "type": "Feature",
      "id": "node/170748789",
      "properties": {
        "electrified": "no",
        "gauge": "1435",
        "name": "Sandıklı Istasyon",
        "railway": "station",
        "source": "bing",
        "id": "node/170748789"
      },
      "geometry": {
        "type": "Point",
        "coordinates": [
          30.2609841,
          38.4582255
        ]
      }
    },
    {
      "type": "Feature",
      "id": "node/175628712",
      "properties": {
        "name": "Stadyum",
        "network": "TR-railway",
        "operator": "TCCD",
        "public_transport": "stop_position",
        "railway": "halt",
        "train": "yes",
        "id": "node/175628712"
      },
      "geometry": {
        "type": "Point",
        "coordinates": [
          37.380944,
          37.1272502
        ]
      }
    },
    {
      "type": "Feature",
      "id": "node/175629025",
      "properties": {
        "name": "Mustafa Yavuz",
        "network": "TR-railway",
        "operator": "TCCD",
        "public_transport": "stop_position",
        "railway": "station",
        "train": "yes",
        "id": "node/175629025"
      },
      "geometry": {
        "type": "Point",
        "coordinates": [
          37.4304861,
          37.0711538
        ]
      }
    },
    {
      "type": "Feature",
      "id": "node/175629038",
      "properties": {
        "name": "Oduncular",
        "network": "TR-railway",
        "operator": "TCCD",
        "public_transport": "stop_position",
        "railway": "halt",
        "train": "yes",
        "id": "node/175629038"
      },
      "geometry": {
        "type": "Point",
        "coordinates": [
          37.4493694,
          37.0583374
        ]
      }
    },
    {
      "type": "Feature",
      "id": "node/204787245",
      "properties": {
        "name": "Dazkırı Istasyonu",
        "railway": "station",
        "usage": "main",
        "id": "node/204787245"
      },
      "geometry": {
        "type": "Point",
        "coordinates": [
          29.8623942,
          37.9021127
        ]
      }
    },
    {
      "type": "Feature",
      "id": "node/204787267",
      "properties": {
        "name": "Akyarma Durağı",
        "railway": "halt",
        "usage": "main",
        "id": "node/204787267"
      },
      "geometry": {
        "type": "Point",
        "coordinates": [
          29.8987965,
          37.99846
        ]
      }
    },
    {
      "type": "Feature",
      "id": "node/212886999",
      "properties": {
        "electrified": "no",
        "gauge": "1435",
        "name": "Selçuk",
        "public_transport": "station",
        "railway": "station",
        "source": "bing",
        "train": "yes",
        "wikidata": "Q28446397",
        "id": "node/212886999"
      },
      "geometry": {
        "type": "Point",
        "coordinates": [
          27.3728759,
          37.9510211
        ]
      }
    },
    {
      "type": "Feature",
      "id": "node/248561250",
      "properties": {
        "name": "Bostancı",
        "public_transport": "stop_position",
        "railway": "stop",
        "train": "yes",
        "id": "node/248561250"
      },
      "geometry": {
        "type": "Point",
        "coordinates": [
          29.094853,
          40.9538984
        ]
      }
    },
    {
      "type": "Feature",
      "id": "node/251732729",
      "properties": {
        "name": "Koca Mustafa Paşa",
        "name:ar": "كوجا مصطفى باشا",
        "public_transport": "station",
        "railway": "station",
        "wikidata": "Q6424719",
        "id": "node/251732729"
      },
      "geometry": {
        "type": "Point",
        "coordinates": [
          28.9332339,
          40.9999514
        ]
      }
    },
    {
      "type": "Feature",
      "id": "node/251733019",
      "properties": {
        "name": "Zeytinburnu",
        "public_transport": "station",
        "railway": "station",
        "train": "yes",
        "wikidata": "Q43398835",
        "id": "node/251733019"
      },
      "geometry": {
        "type": "Point",
        "coordinates": [
          28.9054568,
          40.9858638
        ]
      }
    },
    {
      "type": "Feature",
      "id": "node/251733037",
      "properties": {
        "name": "Yeni Mahale",
        "public_transport": "stop_position",
        "railway": "stop",
        "train": "yes",
        "id": "node/251733037"
      },
      "geometry": {
        "type": "Point",
        "coordinates": [
          28.8810418,
          40.9818044
        ]
      }
    },
    {
      "type": "Feature",
      "id": "node/268753721",
      "properties": {
        "name": "Şemikler İzban",
        "operator": "izban",
        "public_transport": "station",
        "railway": "station",
        "wikidata": "Q8082463",
        "wikipedia": "tr:Şemikler Tren İstasyonu",
        "id": "node/268753721"
      },
      "geometry": {
        "type": "Point",
        "coordinates": [
          27.090077,
          38.4747463
        ]
      }
    },
    {
      "type": "Feature",
      "id": "node/282815862",
      "properties": {
        "name": "Çobanlar Gar",
        "public_transport": "station",
        "railway": "station",
        "train": "yes",
        "id": "node/282815862"
      },
      "geometry": {
        "type": "Point",
        "coordinates": [
          30.7371587,
          38.6885277
        ]
      }
    },
    {
      "type": "Feature",
      "id": "node/282817504",
      "properties": {
        "name": "Alayunt Muselles",
        "railway": "halt",
        "id": "node/282817504"
      },
      "geometry": {
        "type": "Point",
        "coordinates": [
          30.1015952,
          39.3904789
        ]
      }
    },
    {
      "type": "Feature",
      "id": "node/282824090",
      "properties": {
        "name": "Demirköy",
        "network": "TCDD",
        "public_transport": "station",
        "railway": "station",
        "source": "Bing",
        "id": "node/282824090"
      },
      "geometry": {
        "type": "Point",
        "coordinates": [
          30.007931,
          40.0004117
        ]
      }
    },
    {
      "type": "Feature",
      "id": "node/282891836",
      "properties": {
        "name": "Derince",
        "railway": "station",
        "wheelchair": "no",
        "id": "node/282891836"
      },
      "geometry": {
        "type": "Point",
        "coordinates": [
          29.8341542,
          40.7544095
        ]
      }
    },
    {
      "type": "Feature",
      "id": "node/282891979",
      "properties": {
        "name": "Tütünçiftlik",
        "railway": "halt",
        "id": "node/282891979"
      },
      "geometry": {
        "type": "Point",
        "coordinates": [
          29.7882349,
          40.7475181
        ]
      }
    },
    {
      "type": "Feature",
      "id": "node/282903538",
      "properties": {
        "name": "Küçükyalı",
        "network": "Marmaray",
        "operator": "TCDD",
        "public_transport": "station",
        "railway": "station",
        "train": "yes",
        "wikidata": "Q55616344",
        "id": "node/282903538"
      },
      "geometry": {
        "type": "Point",
        "coordinates": [
          29.1071691,
          40.9462581
        ]
      }
    },
    {
      "type": "Feature",
      "id": "node/282909259",
      "properties": {
        "internet_access": "yes",
        "internet_access:fee": "no",
        "name": "Atalar",
        "network": "Marmaray",
        "operator": "TCDD",
        "public_transport": "station",
        "railway": "station",
        "train": "yes",
        "wikidata": "Q97320574",
        "wikipedia": "tr:Atalar Tren İstasyonu",
        "id": "node/282909259"
      },
      "geometry": {
        "type": "Point",
        "coordinates": [
          29.1691914,
          40.8987868
        ]
      }
    },
    {
      "type": "Feature",
      "id": "node/282909973",
      "properties": {
        "name": "Cevizli",
        "network": "Marmaray",
        "operator": "TCDD",
        "public_transport": "station",
        "railway": "station",
        "train": "yes",
        "wikidata": "Q97320607",
        "wikipedia": "tr:Cevizli Tren İstasyonu",
        "id": "node/282909973"
      },
      "geometry": {
        "type": "Point",
        "coordinates": [
          29.1559855,
          40.9100807
        ]
      }
    },
    {
      "type": "Feature",
      "id": "node/287815361",
      "properties": {
        "name": "Ömerli",
        "public_transport": "stop_position",
        "railway": "halt",
        "train": "yes",
        "id": "node/287815361"
      },
      "geometry": {
        "type": "Point",
        "coordinates": [
          28.6413843,
          41.1172759
        ]
      }
    },
    {
      "type": "Feature",
      "id": "node/287816572",
      "properties": {
        "name": "Kurfallı",
        "railway": "halt",
        "id": "node/287816572"
      },
      "geometry": {
        "type": "Point",
        "coordinates": [
          28.2635115,
          41.2115691
        ]
      }
    },
    {
      "type": "Feature",
      "id": "node/287816799",
      "properties": {
        "name": "Sinekli",
        "railway": "station",
        "id": "node/287816799"
      },
      "geometry": {
        "type": "Point",
        "coordinates": [
          28.1923087,
          41.2310387
        ]
      }
    },
    {
      "type": "Feature",
      "id": "node/287817190",
      "properties": {
        "alt_name": "Çerkesköy",
        "name": "Çerkezköy",
        "public_transport": "stop_position",
        "railway": "station",
        "train": "yes",
        "uic_name": "Cerkezköy",
        "id": "node/287817190"
      },
      "geometry": {
        "type": "Point",
        "coordinates": [
          28.010593,
          41.2793974
        ]
      }
    },
    {
      "type": "Feature",
      "id": "node/287817477",
      "properties": {
        "name": "Velimeşe",
        "railway": "halt",
        "id": "node/287817477"
      },
      "geometry": {
        "type": "Point",
        "coordinates": [
          27.8857091,
          41.24663
        ]
      }
    },
    {
      "type": "Feature",
      "id": "node/287818379",
      "properties": {
        "name": "Ballıhoca",
        "railway": "halt",
        "id": "node/287818379"
      },
      "geometry": {
        "type": "Point",
        "coordinates": [
          27.4971862,
          41.2185439
        ]
      }
    },
    {
      "type": "Feature",
      "id": "node/287818923",
      "properties": {
        "name": "Alpullu",
        "railway": "station",
        "id": "node/287818923"
      },
      "geometry": {
        "type": "Point",
        "coordinates": [
          27.1440667,
          41.3660427
        ]
      }
    },
    {
      "type": "Feature",
      "id": "node/287820042",
      "properties": {
        "name": "Edirne",
        "public_transport": "station",
        "railway": "station",
        "id": "node/287820042"
      },
      "geometry": {
        "type": "Point",
        "coordinates": [
          26.5796063,
          41.6553062
        ]
      }
    },
    {
      "type": "Feature",
      "id": "node/294198881",
      "properties": {
        "name": "Erzurum Gar",
        "public_transport": "stop_position",
        "railway": "station",
        "train": "yes",
        "id": "node/294198881"
      },
      "geometry": {
        "type": "Point",
        "coordinates": [
          41.268575,
          39.9156076
        ]
      }
    },
    {
      "type": "Feature",
      "id": "node/303260292",
      "properties": {
        "frequency": "50",
        "name": "Yazıhan gar",
        "public_transport": "station",
        "railway": "station",
        "id": "node/303260292"
      },
      "geometry": {
        "type": "Point",
        "coordinates": [
          38.181697,
          38.5957816
        ]
      }
    },
    {
      "type": "Feature",
      "id": "node/353037104",
      "properties": {
        "name": "Gebze",
        "public_transport": "stop_position",
        "railway": "stop",
        "train": "yes",
        "id": "node/353037104"
      },
      "geometry": {
        "type": "Point",
        "coordinates": [
          29.4107271,
          40.7838651
        ]
      }
    },
    {
      "type": "Feature",
      "id": "node/370992697",
      "properties": {
        "name": "Şefkat",
        "network": "TR-railway",
        "operator": "TCDD",
        "public_transport": "stop_position",
        "railway": "station",
        "source": "bing",
        "train": "yes",
        "id": "node/370992697"
      },
      "geometry": {
        "type": "Point",
        "coordinates": [
          38.8997071,
          38.5734606
        ]
      }
    },
    {
      "type": "Feature",
      "id": "node/440894064",
      "properties": {
        "name": "Durak",
        "railway": "station",
        "wikidata": "Q55610135",
        "id": "node/440894064"
      },
      "geometry": {
        "type": "Point",
        "coordinates": [
          35.0019102,
          37.1198103
        ]
      }
    },
    {
      "type": "Feature",
      "id": "node/440894105",
      "properties": {
        "name": "Şakirpaşa",
        "public_transport": "stop_position",
        "rail": "yes",
        "railway": "stop",
        "train": "yes",
        "id": "node/440894105"
      },
      "geometry": {
        "type": "Point",
        "coordinates": [
          35.2439829,
          36.9979736
        ]
      }
    },
    {
      "type": "Feature",
      "id": "node/440894106",
      "properties": {
        "name": "Sakirpasa",
        "public_transport": "stop_position",
        "railway": "stop",
        "train": "yes",
        "id": "node/440894106"
      },
      "geometry": {
        "type": "Point",
        "coordinates": [
          35.2889749,
          36.9961532
        ]
      }
    },
    {
      "type": "Feature",
      "id": "node/442532879",
      "properties": {
        "name": "Belemedik",
        "railway": "station",
        "wikidata": "Q55605153",
        "id": "node/442532879"
      },
      "geometry": {
        "type": "Point",
        "coordinates": [
          34.910685,
          37.3552549
        ]
      }
    },
    {
      "type": "Feature",
      "id": "node/442664826",
      "properties": {
        "name": "Kemerhisar",
        "railway": "station",
        "id": "node/442664826"
      },
      "geometry": {
        "type": "Point",
        "coordinates": [
          34.5496066,
          37.8191
        ]
      }
    },
    {
      "type": "Feature",
      "id": "node/442667363",
      "properties": {
        "name": "Kayseri",
        "public_transport": "station",
        "railway": "station",
        "id": "node/442667363"
      },
      "geometry": {
        "type": "Point",
        "coordinates": [
          35.4777128,
          38.7307206
        ]
      }
    },
    {
      "type": "Feature",
      "id": "node/442667364",
      "properties": {
        "name": "Boğazköprü",
        "public_transport": "station",
        "railway": "station",
        "id": "node/442667364"
      },
      "geometry": {
        "type": "Point",
        "coordinates": [
          35.322304,
          38.7552639
        ]
      }
    },
    {
      "type": "Feature",
      "id": "node/520099553",
      "properties": {
        "name": "Horozluhan Gar",
        "public_transport": "station",
        "railway": "station",
        "id": "node/520099553"
      },
      "geometry": {
        "type": "Point",
        "coordinates": [
          32.5908031,
          38.0002222
        ]
      }
    },
    {
      "type": "Feature",
      "id": "node/520099561",
      "properties": {
        "name": "Pınarbaşı Gar",
        "railway": "station",
        "wikidata": "Q62004832",
        "id": "node/520099561"
      },
      "geometry": {
        "type": "Point",
        "coordinates": [
          32.6048485,
          38.0371687
        ]
      }
    },
    {
      "type": "Feature",
      "id": "node/521150853",
      "properties": {
        "name": "Arıkören Gar",
        "railway": "station",
        "wikidata": "Q43398805",
        "id": "node/521150853"
      },
      "geometry": {
        "type": "Point",
        "coordinates": [
          32.927999,
          37.4607346
        ]
      }
    },
    {
      "type": "Feature",
      "id": "node/590521315",
      "properties": {
        "name": "Demirköprü",
        "operator": "izban",
        "public_transport": "station",
        "railway": "station",
        "wikidata": "Q5255410",
        "wikipedia": "tr:Demirköprü Tren İstasyonu (İzmir)",
        "id": "node/590521315"
      },
      "geometry": {
        "type": "Point",
        "coordinates": [
          27.0963518,
          38.467949
        ]
      }
    },
    {
      "type": "Feature",
      "id": "node/602123192",
      "properties": {
        "name": "Van İskele",
        "name:en": "Van Wharf",
        "network": "TR-railway",
        "operator": "TCDD",
        "public_transport": "stop_position",
        "railway": "station",
        "train": "yes",
        "id": "node/602123192"
      },
      "geometry": {
        "type": "Point",
        "coordinates": [
          43.3080754,
          38.5170385
        ]
      }
    },
    {
      "type": "Feature",
      "id": "node/617374869",
      "properties": {
        "name": "İdealtepe",
        "network": "Marmaray",
        "operator": "TCDD",
        "public_transport": "station",
        "railway": "station",
        "train": "yes",
        "wikidata": "Q55638302",
        "id": "node/617374869"
      },
      "geometry": {
        "type": "Point",
        "coordinates": [
          29.1142485,
          40.9378183
        ]
      }
    },
    {
      "type": "Feature",
      "id": "node/617374883",
      "properties": {
        "name": "Süreyya Plajı",
        "network": "Marmaray",
        "operator": "TCDD",
        "public_transport": "station",
        "railway": "station",
        "train": "yes",
        "id": "node/617374883"
      },
      "geometry": {
        "type": "Point",
        "coordinates": [
          29.1242403,
          40.9267941
        ]
      }
    },
    {
      "type": "Feature",
      "id": "node/617374899",
      "properties": {
        "name": "Maltepe",
        "network": "Marmaray",
        "operator": "TCDD",
        "public_transport": "station",
        "railway": "station",
        "train": "yes",
        "wheelchair": "yes",
        "id": "node/617374899"
      },
      "geometry": {
        "type": "Point",
        "coordinates": [
          29.133295,
          40.920807
        ]
      }
    },
    {
      "type": "Feature",
      "id": "node/617375011",
      "properties": {
        "name": "Pendik",
        "network": "Marmaray",
        "operator": "TCDD",
        "public_transport": "station",
        "railway": "station",
        "train": "yes",
        "wikidata": "Q7162415",
        "id": "node/617375011"
      },
      "geometry": {
        "type": "Point",
        "coordinates": [
          29.231618,
          40.8801577
        ]
      }
    },
    {
      "type": "Feature",
      "id": "node/627566084",
      "properties": {
        "name": "Akhisar Garı",
        "railway": "station",
        "id": "node/627566084"
      },
      "geometry": {
        "type": "Point",
        "coordinates": [
          27.8331057,
          38.92246
        ]
      }
    },
    {
      "type": "Feature",
      "id": "node/663657266",
      "properties": {
        "name": "İzban Mavişehir İstasyonu",
        "operator": "izban",
        "public_transport": "station",
        "railway": "station",
        "wheelchair": "yes",
        "wikidata": "Q6794274",
        "wikipedia": "tr:Mavişehir Tren İstasyonu",
        "id": "node/663657266"
      },
      "geometry": {
        "type": "Point",
        "coordinates": [
          27.08298,
          38.482221
        ]
      }
    },
    {
      "type": "Feature",
      "id": "node/665148430",
      "properties": {
        "name": "Alsancak",
        "name:en": "Alsancak",
        "name:tr": "Alsancak",
        "operator": "İZBAN",
        "public_transport": "station",
        "railway": "station",
        "train": "yes",
        "wikidata": "Q8080254",
        "wikipedia:en": "Alsancak railway station",
        "wikipedia:tr": "Alsancak Garı",
        "id": "node/665148430"
      },
      "geometry": {
        "type": "Point",
        "coordinates": [
          27.1488729,
          38.4386301
        ]
      }
    },
    {
      "type": "Feature",
      "id": "node/670232809",
      "properties": {
        "name": "Taksim",
        "public_transport": "stop_position",
        "railway": "stop",
        "train": "yes",
        "id": "node/670232809"
      },
      "geometry": {
        "type": "Point",
        "coordinates": [
          28.9857482,
          41.0380161
        ]
      }
    },
    {
      "type": "Feature",
      "id": "node/737949225",
      "properties": {
        "name": "Ulukent İzban İstasyonu",
        "operator": "izban",
        "public_transport": "station",
        "railway": "station",
        "train": "yes",
        "wikidata": "Q7880798",
        "wikipedia": "tr:Ulukent Tren İstasyonu",
        "id": "node/737949225"
      },
      "geometry": {
        "type": "Point",
        "coordinates": [
          27.0354657,
          38.5478512
        ]
      }
    },
    {
      "type": "Feature",
      "id": "node/738753118",
      "properties": {
        "name": "İzban Atasanayi İstasyonu",
        "operator": "izban",
        "public_transport": "station",
        "railway": "station",
        "train": "yes",
        "wikidata": "Q25479855",
        "wikipedia": "tr:Ata Sanayi Tren İstasyonu",
        "id": "node/738753118"
      },
      "geometry": {
        "type": "Point",
        "coordinates": [
          27.0531415,
          38.4990422
        ]
      }
    },
    {
      "type": "Feature",
      "id": "node/859885516",
      "properties": {
        "name": "Çimenova Istasyonu",
        "railway": "halt",
        "id": "node/859885516"
      },
      "geometry": {
        "type": "Point",
        "coordinates": [
          44.0921091,
          38.5799902
        ]
      }
    },
    {
      "type": "Feature",
      "id": "node/913399858",
      "properties": {
        "electrified": "contact_line",
        "frequency": "50",
        "gauge": "1435",
        "name": "Cumaovası İzban İstasyonu",
        "network": "izban",
        "public_transport": "station",
        "railway": "station",
        "train": "yes",
        "voltage": "25000",
        "wikidata": "Q5193795",
        "wikipedia": "tr:Cumaovası Tren İstasyonu",
        "id": "node/913399858"
      },
      "geometry": {
        "type": "Point",
        "coordinates": [
          27.1631377,
          38.2643486
        ]
      }
    },
    {
      "type": "Feature",
      "id": "node/913399928",
      "properties": {
        "description": "Tren İstasyonu\nİZBAN İstasyonu",
        "electrified": "contact_line",
        "frequency": "50",
        "gauge": "1435",
        "internet_access": "wlan",
        "name": "Adnan Menderes Havalimanı Tren İstasyonu (Menemen Yönü)",
        "network": "İzmir - Eğirdir Demiryolu",
        "operator": "Türkiye Cumhuriyeti Devlet Demiryolları",
        "public_transport": "stop_position",
        "railway": "stop",
        "train": "yes",
        "voltage": "25000",
        "wheelchair": "yes",
        "id": "node/913399928"
      },
      "geometry": {
        "type": "Point",
        "coordinates": [
          27.1479922,
          38.2913069
        ]
      }
    },
    {
      "type": "Feature",
      "id": "node/913399942",
      "properties": {
        "electrified": "contact_line",
        "frequency": "50",
        "gauge": "1435",
        "name": "Sarnıç",
        "operator": "izban",
        "public_transport": "stop_position",
        "railway": "stop",
        "train": "yes",
        "voltage": "25000",
        "id": "node/913399942"
      },
      "geometry": {
        "type": "Point",
        "coordinates": [
          27.1446475,
          38.3121252
        ]
      }
    },
    {
      "type": "Feature",
      "id": "node/913399945",
      "properties": {
        "electrified": "contact_line",
        "frequency": "50",
        "gauge": "1435",
        "name": "Gaziemir",
        "network": "Aliağa-Cumaovası Hattı",
        "operator": "İZBAN",
        "public_transport": "station",
        "railway": "station",
        "train": "yes",
        "voltage": "25000",
        "id": "node/913399945"
      },
      "geometry": {
        "type": "Point",
        "coordinates": [
          27.1399787,
          38.326354
        ]
      }
    },
    {
      "type": "Feature",
      "id": "node/913399946",
      "properties": {
        "electrified": "contact_line",
        "frequency": "50",
        "gauge": "1435",
        "name": "ESBAŞ",
        "public_transport": "stop_position",
        "railway": "stop",
        "train": "yes",
        "voltage": "25000",
        "id": "node/913399946"
      },
      "geometry": {
        "type": "Point",
        "coordinates": [
          27.136488,
          38.3369451
        ]
      }
    },
    {
      "type": "Feature",
      "id": "node/913399950",
      "properties": {
        "name": "Semt Garajı",
        "operator": "İZBAN",
        "public_transport": "station",
        "railway": "station",
        "id": "node/913399950"
      },
      "geometry": {
        "type": "Point",
        "coordinates": [
          27.1366458,
          38.3570032
        ]
      }
    },
    {
      "type": "Feature",
      "id": "node/947975087",
      "properties": {
        "name": "Çerkeş",
        "public_transport": "stop_position",
        "railway": "station",
        "train": "yes",
        "id": "node/947975087"
      },
      "geometry": {
        "type": "Point",
        "coordinates": [
          32.8841329,
          40.8116161
        ]
      }
    },
    {
      "type": "Feature",
      "id": "node/963242112",
      "properties": {
        "name": "Sumucak",
        "railway": "halt",
        "id": "node/963242112"
      },
      "geometry": {
        "type": "Point",
        "coordinates": [
          33.3462089,
          40.8242844
        ]
      }
    },
    {
      "type": "Feature",
      "id": "node/969662465",
      "properties": {
        "name": "Km.77 Sayding",
        "railway": "halt",
        "id": "node/969662465"
      },
      "geometry": {
        "type": "Point",
        "coordinates": [
          37.2436519,
          37.4551443
        ]
      }
    },
    {
      "type": "Feature",
      "id": "node/969662630",
      "properties": {
        "name": "Fevzipaşa",
        "network": "TR-railway",
        "operator": "TCDD",
        "public_transport": "stop_position",
        "railway": "station",
        "train": "yes",
        "id": "node/969662630"
      },
      "geometry": {
        "type": "Point",
        "coordinates": [
          36.6386898,
          37.0988378
        ]
      }
    },
    {
      "type": "Feature",
      "id": "node/1000822648",
      "properties": {
        "name": "Kartal",
        "network": "Marmaray",
        "operator": "TCDD",
        "public_transport": "station",
        "railway": "station",
        "train": "yes",
        "wikidata": "Q55615709",
        "wikipedia": "tr:Kartal Tren İstasyonu",
        "id": "node/1000822648"
      },
      "geometry": {
        "type": "Point",
        "coordinates": [
          29.1910827,
          40.8886904
        ]
      }
    },
    {
      "type": "Feature",
      "id": "node/1014378262",
      "properties": {
        "name": "Karaisalıbucağı",
        "railway": "station",
        "wikidata": "Q55615684",
        "id": "node/1014378262"
      },
      "geometry": {
        "type": "Point",
        "coordinates": [
          34.9391714,
          37.1913669
        ]
      }
    },
    {
      "type": "Feature",
      "id": "node/1016618867",
      "properties": {
        "electrified": "no",
        "gauge": "1435",
        "name": "Afyonkarahisar Şehir Garı",
        "public_transport": "station",
        "railway": "station",
        "source": "bing",
        "id": "node/1016618867"
      },
      "geometry": {
        "type": "Point",
        "coordinates": [
          30.5355036,
          38.7671114
        ]
      }
    },
    {
      "type": "Feature",
      "id": "node/1017553575",
      "properties": {
        "name": "Palu Garı",
        "public_transport": "station",
        "railway": "station",
        "id": "node/1017553575"
      },
      "geometry": {
        "type": "Point",
        "coordinates": [
          39.9269115,
          38.6910365
        ]
      }
    },
    {
      "type": "Feature",
      "id": "node/1018798452",
      "properties": {
        "name": "Sivrice Garı",
        "public_transport": "station",
        "railway": "halt",
        "id": "node/1018798452"
      },
      "geometry": {
        "type": "Point",
        "coordinates": [
          39.306998,
          38.4486238
        ]
      }
    },
    {
      "type": "Feature",
      "id": "node/1018799487",
      "properties": {
        "name": "Elazığ",
        "network": "TR-railway",
        "operator": "TCDD",
        "public_transport": "station",
        "railway": "station",
        "id": "node/1018799487"
      },
      "geometry": {
        "type": "Point",
        "coordinates": [
          39.2227704,
          38.6649138
        ]
      }
    },
    {
      "type": "Feature",
      "id": "node/1018904198",
      "properties": {
        "name": "Ulam",
        "railway": "station",
        "id": "node/1018904198"
      },
      "geometry": {
        "type": "Point",
        "coordinates": [
          40.4708194,
          37.8379791
        ]
      }
    },
    {
      "type": "Feature",
      "id": "node/1018997109",
      "properties": {
        "name": "Salat",
        "railway": "halt",
        "id": "node/1018997109"
      },
      "geometry": {
        "type": "Point",
        "coordinates": [
          40.8900229,
          37.8464048
        ]
      }
    },
    {
      "type": "Feature",
      "id": "node/1018997728",
      "properties": {
        "name": "Km 102+600",
        "railway": "halt",
        "id": "node/1018997728"
      },
      "geometry": {
        "type": "Point",
        "coordinates": [
          41.1556151,
          37.9329833
        ]
      }
    },
    {
      "type": "Feature",
      "id": "node/1018997848",
      "properties": {
        "addr:city": "Diyarbakır",
        "addr:district": "Bismil",
        "name": "Bismil Tren İstasyonu",
        "public_transport": "station",
        "railway": "station",
        "train": "yes",
        "id": "node/1018997848"
      },
      "geometry": {
        "type": "Point",
        "coordinates": [
          40.6619253,
          37.8527977
        ]
      }
    },
    {
      "type": "Feature",
      "id": "node/1018999007",
      "properties": {
        "addr:city": "Batman",
        "addr:district": "Merkez",
        "name": "Batman Garı",
        "public_transport": "station",
        "railway": "station",
        "id": "node/1018999007"
      },
      "geometry": {
        "type": "Point",
        "coordinates": [
          41.1229083,
          37.8785378
        ]
      }
    },
    {
      "type": "Feature",
      "id": "node/1019524264",
      "properties": {
        "name": "Erzincan Gar",
        "railway": "station",
        "id": "node/1019524264"
      },
      "geometry": {
        "type": "Point",
        "coordinates": [
          39.4930949,
          39.7337173
        ]
      }
    },
    {
      "type": "Feature",
      "id": "node/1019524422",
      "properties": {
        "name": "Gecit",
        "public_transport": "station",
        "railway": "station",
        "id": "node/1019524422"
      },
      "geometry": {
        "type": "Point",
        "coordinates": [
          39.949293,
          39.5761373
        ]
      }
    },
    {
      "type": "Feature",
      "id": "node/1019524637",
      "properties": {
        "name": "Altınbaşak İstasyonu",
        "railway": "station",
        "id": "node/1019524637"
      },
      "geometry": {
        "type": "Point",
        "coordinates": [
          39.6770522,
          39.6638164
        ]
      }
    },
    {
      "type": "Feature",
      "id": "node/1019524713",
      "properties": {
        "name": "Tanyeri İstasyonu",
        "railway": "station",
        "id": "node/1019524713"
      },
      "geometry": {
        "type": "Point",
        "coordinates": [
          39.8281801,
          39.6097917
        ]
      }
    },
    {
      "type": "Feature",
      "id": "node/1020960459",
      "properties": {
        "name": "Bostankaya İstasyonu",
        "public_transport": "station",
        "railway": "station",
        "id": "node/1020960459"
      },
      "geometry": {
        "type": "Point",
        "coordinates": [
          37.0091305,
          39.5120724
        ]
      }
    },
    {
      "type": "Feature",
      "id": "node/1020963719",
      "properties": {
        "name": "Sivas Gar",
        "network": "TR-railway",
        "operator": "TCDD",
        "public_transport": "stop_position",
        "railway": "station",
        "train": "yes",
        "id": "node/1020963719"
      },
      "geometry": {
        "type": "Point",
        "coordinates": [
          37.0067957,
          39.7394205
        ]
      }
    },
    {
      "type": "Feature",
      "id": "node/1021731954",
      "properties": {
        "alt_name": "Ulaş Railway Station;Ulaş Station",
        "name": "Ulaş",
        "name:en": "Ulaş",
        "railway": "halt",
        "wikidata": "Q85753127",
        "id": "node/1021731954"
      },
      "geometry": {
        "type": "Point",
        "coordinates": [
          37.0353516,
          39.443182
        ]
      }
    },
    {
      "type": "Feature",
      "id": "node/1021732479",
      "properties": {
        "name": "Yeni Karasar",
        "railway": "halt",
        "id": "node/1021732479"
      },
      "geometry": {
        "type": "Point",
        "coordinates": [
          37.1128194,
          39.3479258
        ]
      }
    },
    {
      "type": "Feature",
      "id": "node/1021732572",
      "properties": {
        "name": "Km 638+907",
        "railway": "halt",
        "id": "node/1021732572"
      },
      "geometry": {
        "type": "Point",
        "coordinates": [
          37.0440012,
          39.4367011
        ]
      }
    },
    {
      "type": "Feature",
      "id": "node/1021732834",
      "properties": {
        "name": "Gürpınar",
        "railway": "halt",
        "id": "node/1021732834"
      },
      "geometry": {
        "type": "Point",
        "coordinates": [
          37.1572984,
          39.3537667
        ]
      }
    },
    {
      "type": "Feature",
      "id": "node/1022214142",
      "properties": {
        "name": "Yıldızeli İstasyonu",
        "railway": "station",
        "id": "node/1022214142"
      },
      "geometry": {
        "type": "Point",
        "coordinates": [
          36.5933287,
          39.8671888
        ]
      }
    },
    {
      "type": "Feature",
      "id": "node/1022214282",
      "properties": {
        "name": "Topulyurdu",
        "railway": "halt",
        "id": "node/1022214282"
      },
      "geometry": {
        "type": "Point",
        "coordinates": [
          36.3018872,
          39.9561352
        ]
      }
    },
    {
      "type": "Feature",
      "id": "node/1022220008",
      "properties": {
        "name": "Kalın Koyu Duragi",
        "railway": "halt",
        "id": "node/1022220008"
      },
      "geometry": {
        "type": "Point",
        "coordinates": [
          36.7265115,
          39.7246735
        ]
      }
    },
    {
      "type": "Feature",
      "id": "node/1022220160",
      "properties": {
        "name": "Subaşı İstasyonu",
        "public_transport": "station",
        "railway": "station",
        "id": "node/1022220160"
      },
      "geometry": {
        "type": "Point",
        "coordinates": [
          36.4182881,
          39.8945084
        ]
      }
    },
    {
      "type": "Feature",
      "id": "node/1022765315",
      "properties": {
        "name": "Yeniçubuk İstasyonu",
        "railway": "station",
        "id": "node/1022765315"
      },
      "geometry": {
        "type": "Point",
        "coordinates": [
          36.0928045,
          39.2094777
        ]
      }
    },
    {
      "type": "Feature",
      "id": "node/1022798416",
      "properties": {
        "name": "Şarkışla İstasyonu",
        "railway": "station",
        "id": "node/1022798416"
      },
      "geometry": {
        "type": "Point",
        "coordinates": [
          36.4031656,
          39.3640489
        ]
      }
    },
    {
      "type": "Feature",
      "id": "node/1022802015",
      "properties": {
        "name": "Bedirli İstasyonu",
        "railway": "station",
        "wikidata": "Q85753108",
        "id": "node/1022802015"
      },
      "geometry": {
        "type": "Point",
        "coordinates": [
          36.6197008,
          39.5806913
        ]
      }
    },
    {
      "type": "Feature",
      "id": "node/1022808796",
      "properties": {
        "name": "İhsanlı İstasyonu",
        "railway": "station",
        "id": "node/1022808796"
      },
      "geometry": {
        "type": "Point",
        "coordinates": [
          36.2367865,
          39.2864459
        ]
      }
    },
    {
      "type": "Feature",
      "id": "node/1023852878",
      "properties": {
        "name": "Km 0+700",
        "railway": "halt",
        "id": "node/1023852878"
      },
      "geometry": {
        "type": "Point",
        "coordinates": [
          36.3493615,
          41.280854
        ]
      }
    },
    {
      "type": "Feature",
      "id": "node/1023854236",
      "properties": {
        "name": "Samsun Gar",
        "public_transport": "stop_position",
        "railway": "station",
        "train": "yes",
        "id": "node/1023854236"
      },
      "geometry": {
        "type": "Point",
        "coordinates": [
          36.3431937,
          41.2860535
        ]
      }
    },
    {
      "type": "Feature",
      "id": "node/1024612743",
      "properties": {
        "name": "Km 27",
        "railway": "halt",
        "id": "node/1024612743"
      },
      "geometry": {
        "type": "Point",
        "coordinates": [
          36.1783853,
          41.1365133
        ]
      }
    },
    {
      "type": "Feature",
      "id": "node/1024958620",
      "properties": {
        "name": "Toruntepe Istasyon",
        "railway": "station",
        "id": "node/1024958620"
      },
      "geometry": {
        "type": "Point",
        "coordinates": [
          40.8443426,
          37.115575
        ]
      }
    },
    {
      "type": "Feature",
      "id": "node/1026522639",
      "properties": {
        "name": "İskenderun Gar",
        "public_transport": "stop_position",
        "railway": "stop",
        "train": "yes",
        "id": "node/1026522639"
      },
      "geometry": {
        "type": "Point",
        "coordinates": [
          36.1812142,
          36.5873655
        ]
      }
    },
    {
      "type": "Feature",
      "id": "node/1027181673",
      "properties": {
        "name": "Ayran",
        "railway": "halt",
        "id": "node/1027181673"
      },
      "geometry": {
        "type": "Point",
        "coordinates": [
          36.6092604,
          37.1906552
        ]
      }
    },
    {
      "type": "Feature",
      "id": "node/1027182121",
      "properties": {
        "name": "Bahçe Şehir",
        "railway": "halt",
        "id": "node/1027182121"
      },
      "geometry": {
        "type": "Point",
        "coordinates": [
          36.5779129,
          37.2015722
        ]
      }
    },
    {
      "type": "Feature",
      "id": "node/1027182569",
      "properties": {
        "name": "Ayran",
        "railway": "station",
        "source": "Bing",
        "id": "node/1027182569"
      },
      "geometry": {
        "type": "Point",
        "coordinates": [
          36.6195166,
          37.1833743
        ]
      }
    },
    {
      "type": "Feature",
      "id": "node/1027801662",
      "properties": {
        "name": "İslahiye İstasyonu",
        "railway": "station",
        "id": "node/1027801662"
      },
      "geometry": {
        "type": "Point",
        "coordinates": [
          36.6367834,
          37.0307038
        ]
      }
    },
    {
      "type": "Feature",
      "id": "node/1027876276",
      "properties": {
        "name": "Göllüce",
        "network": "TR-railway",
        "operator": "TCCD",
        "public_transport": "stop_position",
        "railway": "halt",
        "train": "yes",
        "id": "node/1027876276"
      },
      "geometry": {
        "type": "Point",
        "coordinates": [
          37.4046665,
          37.0740976
        ]
      }
    },
    {
      "type": "Feature",
      "id": "node/1027876381",
      "properties": {
        "name": "Gaziantep",
        "network": "TR-railway",
        "operator": "TCDD",
        "public_transport": "stop_position",
        "railway": "station",
        "train": "yes",
        "id": "node/1027876381"
      },
      "geometry": {
        "type": "Point",
        "coordinates": [
          37.3808548,
          37.0736438
        ]
      }
    },
    {
      "type": "Feature",
      "id": "node/1027876435",
      "properties": {
        "name": "Yuva",
        "network": "TR-railway",
        "operator": "TCDD",
        "public_transport": "stop_position",
        "railway": "station",
        "train": "yes",
        "id": "node/1027876435"
      },
      "geometry": {
        "type": "Point",
        "coordinates": [
          37.6858966,
          36.9847
        ]
      }
    },
    {
      "type": "Feature",
      "id": "node/1027924561",
      "properties": {
        "name": "Florya",
        "public_transport": "station",
        "railway": "station",
        "train": "yes",
        "wikidata": "Q58814863",
        "id": "node/1027924561"
      },
      "geometry": {
        "type": "Point",
        "coordinates": [
          28.7876122,
          40.972897
        ]
      }
    },
    {
      "type": "Feature",
      "id": "node/1028215425",
      "properties": {
        "name": "Elifoğlu",
        "network": "TR-railway",
        "operator": "TCDD",
        "public_transport": "stop_position",
        "railway": "station",
        "train": "yes",
        "id": "node/1028215425"
      },
      "geometry": {
        "type": "Point",
        "coordinates": [
          37.985223,
          36.9425966
        ]
      }
    },
    {
      "type": "Feature",
      "id": "node/1028216257",
      "properties": {
        "name": "Yeşildağ",
        "network": "TR-railway",
        "operator": "TCDD",
        "public_transport": "stop_position",
        "railway": "station",
        "train": "yes",
        "id": "node/1028216257"
      },
      "geometry": {
        "type": "Point",
        "coordinates": [
          37.9548861,
          37.0070732
        ]
      }
    },
    {
      "type": "Feature",
      "id": "node/1028217031",
      "properties": {
        "name": "Karkamış",
        "name:ar": "محطة كركميش",
        "network": "TR-railway",
        "operator": "TCDD",
        "public_transport": "stop_position",
        "railway": "station",
        "train": "yes",
        "id": "node/1028217031"
      },
      "geometry": {
        "type": "Point",
        "coordinates": [
          37.9995946,
          36.8311429
        ]
      }
    },
    {
      "type": "Feature",
      "id": "node/1028302961",
      "properties": {
        "name": "Haydarli",
        "network": "TR-railway",
        "operator": "TCDD",
        "public_transport": "stop_position",
        "railway": "halt",
        "train": "yes",
        "id": "node/1028302961"
      },
      "geometry": {
        "type": "Point",
        "coordinates": [
          37.4541972,
          37.5790651
        ]
      }
    },
    {
      "type": "Feature",
      "id": "node/1028444629",
      "properties": {
        "frequency": "50",
        "name": "Malatya",
        "network": "TR-railway",
        "operator": "TCDD",
        "public_transport": "stop_position",
        "railway": "station",
        "train": "yes",
        "id": "node/1028444629"
      },
      "geometry": {
        "type": "Point",
        "coordinates": [
          38.283309,
          38.3524355
        ]
      }
    },
    {
      "type": "Feature",
      "id": "node/1029552677",
      "properties": {
        "name": "Akçadağ",
        "network": "TR-railway",
        "operator": "TCDD",
        "public_transport": "stop_position",
        "railway": "station",
        "train": "yes",
        "id": "node/1029552677"
      },
      "geometry": {
        "type": "Point",
        "coordinates": [
          38.0444592,
          38.2908815
        ]
      }
    },
    {
      "type": "Feature",
      "id": "node/1029553728",
      "properties": {
        "name": "Suçatı",
        "network": "TR-railway",
        "operator": "TCDD",
        "public_transport": "stop_position",
        "railway": "station",
        "train": "yes",
        "id": "node/1029553728"
      },
      "geometry": {
        "type": "Point",
        "coordinates": [
          37.9780345,
          38.1866836
        ]
      }
    },
    {
      "type": "Feature",
      "id": "node/1029554178",
      "properties": {
        "name": "Doğanşehir",
        "network": "TR-railway",
        "operator": "TCDD",
        "public_transport": "stop_position",
        "railway": "station",
        "source": "bing",
        "train": "yes",
        "id": "node/1029554178"
      },
      "geometry": {
        "type": "Point",
        "coordinates": [
          37.8747695,
          38.0888374
        ]
      }
    },
    {
      "type": "Feature",
      "id": "node/1030362574",
      "properties": {
        "name": "Sarıkamış İstasyonu",
        "railway": "station",
        "wikidata": "Q7424907",
        "id": "node/1030362574"
      },
      "geometry": {
        "type": "Point",
        "coordinates": [
          42.5769813,
          40.3358506
        ]
      }
    },
    {
      "type": "Feature",
      "id": "node/1030362885",
      "properties": {
        "name": "Kemah İstasyonu",
        "railway": "station",
        "id": "node/1030362885"
      },
      "geometry": {
        "type": "Point",
        "coordinates": [
          39.0336656,
          39.6036542
        ]
      }
    },
    {
      "type": "Feature",
      "id": "node/1030808774",
      "properties": {
        "name": "Burdur Gar",
        "public_transport": "station",
        "railway": "station",
        "id": "node/1030808774"
      },
      "geometry": {
        "type": "Point",
        "coordinates": [
          30.2818721,
          37.7232988
        ]
      }
    },
    {
      "type": "Feature",
      "id": "node/1030923375",
      "properties": {
        "electrified": "no",
        "gauge": "1435",
        "name": "Goncalı İstasyonu",
        "public_transport": "station",
        "railway": "station",
        "source": "bing",
        "train": "yes",
        "usage": "main",
        "id": "node/1030923375"
      },
      "geometry": {
        "type": "Point",
        "coordinates": [
          29.1167725,
          37.8480686
        ]
      }
    },
    {
      "type": "Feature",
      "id": "node/1030924769",
      "properties": {
        "name": "Kocabaş Istasyon",
        "public_transport": "station",
        "railway": "station",
        "train": "yes",
        "usage": "main",
        "id": "node/1030924769"
      },
      "geometry": {
        "type": "Point",
        "coordinates": [
          29.3277358,
          37.8037151
        ]
      }
    },
    {
      "type": "Feature",
      "id": "node/1032704953",
      "properties": {
        "name": "Ortaklar İstasyonu",
        "network": "TR-railway",
        "operator": "TCDD",
        "public_transport": "stop_position",
        "railway": "station",
        "source": "bing",
        "train": "yes",
        "id": "node/1032704953"
      },
      "geometry": {
        "type": "Point",
        "coordinates": [
          27.5025567,
          37.8864211
        ]
      }
    },
    {
      "type": "Feature",
      "id": "node/1032704993",
      "properties": {
        "name": "Sarayköy Istasyonu",
        "public_transport": "station",
        "railway": "station",
        "train": "yes",
        "id": "node/1032704993"
      },
      "geometry": {
        "type": "Point",
        "coordinates": [
          28.92587,
          37.9141394
        ]
      }
    },
    {
      "type": "Feature",
      "id": "node/1032705881",
      "properties": {
        "name": "Çamlık İstasyonu",
        "public_transport": "station",
        "railway": "station",
        "train": "yes",
        "wikidata": "Q55638281",
        "wikipedia": "tr:Çamlık Tren İstasyonu",
        "id": "node/1032705881"
      },
      "geometry": {
        "type": "Point",
        "coordinates": [
          27.3779202,
          37.8799605
        ]
      }
    },
    {
      "type": "Feature",
      "id": "node/1032781989",
      "properties": {
        "name": "Sazlıköy",
        "railway": "halt",
        "id": "node/1032781989"
      },
      "geometry": {
        "type": "Point",
        "coordinates": [
          27.4623099,
          37.779263
        ]
      }
    },
    {
      "type": "Feature",
      "id": "node/1032782207",
      "properties": {
        "name": "Argavlı",
        "railway": "halt",
        "id": "node/1032782207"
      },
      "geometry": {
        "type": "Point",
        "coordinates": [
          27.5115954,
          37.8262863
        ]
      }
    },
    {
      "type": "Feature",
      "id": "node/1032782424",
      "properties": {
        "monorail": "yes",
        "name": "Söke İstasyonu",
        "network": "TR-railway",
        "operator": "TCDD",
        "public_transport": "stop_position",
        "railway": "station",
        "train": "yes",
        "id": "node/1032782424"
      },
      "geometry": {
        "type": "Point",
        "coordinates": [
          27.4098872,
          37.7553763
        ]
      }
    },
    {
      "type": "Feature",
      "id": "node/1033064947",
      "properties": {
        "name": "İsabeyli Durağı",
        "railway": "station",
        "id": "node/1033064947"
      },
      "geometry": {
        "type": "Point",
        "coordinates": [
          28.2678051,
          37.8950966
        ]
      }
    },
    {
      "type": "Feature",
      "id": "node/1033064956",
      "properties": {
        "name": "Güzelköy Durağı",
        "railway": "halt",
        "id": "node/1033064956"
      },
      "geometry": {
        "type": "Point",
        "coordinates": [
          28.3881041,
          37.9147361
        ]
      }
    },
    {
      "type": "Feature",
      "id": "node/1033065063",
      "properties": {
        "name": "Karaali Durağı",
        "railway": "halt",
        "id": "node/1033065063"
      },
      "geometry": {
        "type": "Point",
        "coordinates": [
          28.1380308,
          37.8801007
        ]
      }
    },
    {
      "type": "Feature",
      "id": "node/1033065166",
      "properties": {
        "name": "Sinirteke Durağı",
        "railway": "halt",
        "id": "node/1033065166"
      },
      "geometry": {
        "type": "Point",
        "coordinates": [
          27.689855,
          37.8601464
        ]
      }
    },
    {
      "type": "Feature",
      "id": "node/1033065272",
      "properties": {
        "name": "Aydın Gar",
        "public_transport": "station",
        "railway": "station",
        "toilets:wheelchair": "yes",
        "wheelchair": "yes",
        "id": "node/1033065272"
      },
      "geometry": {
        "type": "Point",
        "coordinates": [
          27.8420982,
          37.8481544
        ]
      }
    },
    {
      "type": "Feature",
      "id": "node/1033065320",
      "properties": {
        "electrified": "no",
        "gauge": "1435",
        "name": "Atça İstasyonu",
        "operator": "TCDD",
        "railway": "station",
        "source": "bing",
        "id": "node/1033065320"
      },
      "geometry": {
        "type": "Point",
        "coordinates": [
          28.2122682,
          37.8834133
        ]
      }
    },
    {
      "type": "Feature",
      "id": "node/1033065446",
      "properties": {
        "name": "Çakıralı Durağı",
        "railway": "halt",
        "id": "node/1033065446"
      },
      "geometry": {
        "type": "Point",
        "coordinates": [
          28.2344984,
          37.8909855
        ]
      }
    },
    {
      "type": "Feature",
      "id": "node/1033065520",
      "properties": {
        "name": "Köşk Istasyonu",
        "railway": "station",
        "id": "node/1033065520"
      },
      "geometry": {
        "type": "Point",
        "coordinates": [
          28.0510884,
          37.8515635
        ]
      }
    },
    {
      "type": "Feature",
      "id": "node/1033065571",
      "properties": {
        "name": "Osmanbük Durağı",
        "railway": "halt",
        "id": "node/1033065571"
      },
      "geometry": {
        "type": "Point",
        "coordinates": [
          27.7764247,
          37.8496159
        ]
      }
    },
    {
      "type": "Feature",
      "id": "node/1033065811",
      "properties": {
        "electrified": "no",
        "gauge": "1435",
        "name": "İncirliova İstasyonu",
        "railway": "station",
        "source": "bing",
        "id": "node/1033065811"
      },
      "geometry": {
        "type": "Point",
        "coordinates": [
          27.7251091,
          37.8537047
        ]
      }
    },
    {
      "type": "Feature",
      "id": "node/1033065838",
      "properties": {
        "name": "Nazilli İstasyonu",
        "railway": "station",
        "id": "node/1033065838"
      },
      "geometry": {
        "type": "Point",
        "coordinates": [
          28.3270744,
          37.9141074
        ]
      }
    },
    {
      "type": "Feature",
      "id": "node/1033065918",
      "properties": {
        "electrified": "no",
        "gauge": "1435",
        "name": "Sultanhisar İstasyonu",
        "railway": "station",
        "source": "bing",
        "id": "node/1033065918"
      },
      "geometry": {
        "type": "Point",
        "coordinates": [
          28.1555979,
          37.8872901
        ]
      }
    },
    {
      "type": "Feature",
      "id": "node/1033065977",
      "properties": {
        "name": "Kirkkahve Durağı",
        "railway": "halt",
        "id": "node/1033065977"
      },
      "geometry": {
        "type": "Point",
        "coordinates": [
          28.091657,
          37.855598
        ]
      }
    },
    {
      "type": "Feature",
      "id": "node/1033126614",
      "properties": {
        "name": "Arıkbaşı Istasyon",
        "railway": "station",
        "id": "node/1033126614"
      },
      "geometry": {
        "type": "Point",
        "coordinates": [
          27.496309,
          38.1778886
        ]
      }
    },
    {
      "type": "Feature",
      "id": "node/1033127177",
      "properties": {
        "fixme": "resurvey",
        "name": "Tire Toki",
        "note": "exact location to be confirmed",
        "railway": "halt",
        "wikidata": "Q41498546",
        "wikipedia": "en:Tire Toki Mahallesi railway station",
        "id": "node/1033127177"
      },
      "geometry": {
        "type": "Point",
        "coordinates": [
          27.7158829,
          38.1267651
        ]
      }
    },
    {
      "type": "Feature",
      "id": "node/1033127948",
      "properties": {
        "name": "Karpuzlu Durağı",
        "railway": "halt",
        "id": "node/1033127948"
      },
      "geometry": {
        "type": "Point",
        "coordinates": [
          27.556554,
          38.1836195
        ]
      }
    },
    {
      "type": "Feature",
      "id": "node/1033139569",
      "properties": {
        "name": "Gürgür Durağı",
        "railway": "halt",
        "id": "node/1033139569"
      },
      "geometry": {
        "type": "Point",
        "coordinates": [
          27.418543,
          38.1706814
        ]
      }
    },
    {
      "type": "Feature",
      "id": "node/1033323504",
      "properties": {
        "electrified": "no",
        "gauge": "1435",
        "name": "Eşme İstasyonu",
        "name:tr": "Eşme Tren İstasyonu",
        "railway": "station",
        "id": "node/1033323504"
      },
      "geometry": {
        "type": "Point",
        "coordinates": [
          28.9688249,
          38.3982268
        ]
      }
    },
    {
      "type": "Feature",
      "id": "node/1033324723",
      "properties": {
        "electrified": "no",
        "gauge": "1435",
        "name": "Uşak Gar",
        "railway": "station",
        "id": "node/1033324723"
      },
      "geometry": {
        "type": "Point",
        "coordinates": [
          29.4073879,
          38.6639208
        ]
      }
    },
    {
      "type": "Feature",
      "id": "node/1033324775",
      "properties": {
        "electrified": "no",
        "gauge": "1435",
        "name": "İnay İstasyonu",
        "name:tr": "İnay Tren İstasyonu",
        "railway": "station",
        "id": "node/1033324775"
      },
      "geometry": {
        "type": "Point",
        "coordinates": [
          29.2282061,
          38.4225509
        ]
      }
    },
    {
      "type": "Feature",
      "id": "node/1033799242",
      "properties": {
        "electrified": "no",
        "gauge": "1435",
        "name": "Denizli Gar",
        "public_transport": "station",
        "railway": "station",
        "id": "node/1033799242"
      },
      "geometry": {
        "type": "Point",
        "coordinates": [
          29.0911143,
          37.7869262
        ]
      }
    },
    {
      "type": "Feature",
      "id": "node/1033938313",
      "properties": {
        "name": "Balıkesir Tren Garı",
        "public_transport": "station",
        "railway": "station",
        "id": "node/1033938313"
      },
      "geometry": {
        "type": "Point",
        "coordinates": [
          27.8885067,
          39.6469431
        ]
      }
    },
    {
      "type": "Feature",
      "id": "node/1033939388",
      "properties": {
        "name": "Kuşcenneti",
        "public_transport": "station",
        "railway": "station",
        "id": "node/1033939388"
      },
      "geometry": {
        "type": "Point",
        "coordinates": [
          27.9804374,
          40.3359839
        ]
      }
    },
    {
      "type": "Feature",
      "id": "node/1035063304",
      "properties": {
        "name": "Kütahya Gar",
        "public_transport": "station",
        "railway": "station",
        "id": "node/1035063304"
      },
      "geometry": {
        "type": "Point",
        "coordinates": [
          30.0010515,
          39.4205941
        ]
      }
    },
    {
      "type": "Feature",
      "id": "node/1035064188",
      "properties": {
        "railway": "station",
        "id": "node/1035064188"
      },
      "geometry": {
        "type": "Point",
        "coordinates": [
          29.9851758,
          39.5347151
        ]
      }
    },
    {
      "type": "Feature",
      "id": "node/1035592982",
      "properties": {
        "name": "Isparta Gar",
        "railway": "station",
        "id": "node/1035592982"
      },
      "geometry": {
        "type": "Point",
        "coordinates": [
          30.563034,
          37.7717742
        ]
      }
    },
    {
      "type": "Feature",
      "id": "node/1035593588",
      "properties": {
        "electrified": "no",
        "gauge": "1435",
        "name": "Bozanönü Tren İstasyonu",
        "railway": "station",
        "id": "node/1035593588"
      },
      "geometry": {
        "type": "Point",
        "coordinates": [
          30.5453804,
          37.8835114
        ]
      }
    },
    {
      "type": "Feature",
      "id": "node/1035673748",
      "properties": {
        "name": "Baraklı Durağı",
        "railway": "halt",
        "usage": "main",
        "id": "node/1035673748"
      },
      "geometry": {
        "type": "Point",
        "coordinates": [
          29.9736513,
          38.0918802
        ]
      }
    },
    {
      "type": "Feature",
      "id": "node/1036369880",
      "properties": {
        "name": "Savaştepe İstasyonu",
        "public_transport": "station",
        "railway": "station",
        "train": "yes",
        "id": "node/1036369880"
      },
      "geometry": {
        "type": "Point",
        "coordinates": [
          27.6502257,
          39.3827909
        ]
      }
    },
    {
      "type": "Feature",
      "id": "node/1037719716",
      "properties": {
        "name": "Beylikova İstasyonu",
        "railway": "station",
        "id": "node/1037719716"
      },
      "geometry": {
        "type": "Point",
        "coordinates": [
          31.1891986,
          39.7042677
        ]
      }
    },
    {
      "type": "Feature",
      "id": "node/1037720654",
      "properties": {
        "name": "Polatlı İstasyonu",
        "railway": "station",
        "id": "node/1037720654"
      },
      "geometry": {
        "type": "Point",
        "coordinates": [
          32.141766,
          39.5856357
        ]
      }
    },
    {
      "type": "Feature",
      "id": "node/1038144898",
      "properties": {
        "name": "Sekili İstasyonu",
        "railway": "station",
        "id": "node/1038144898"
      },
      "geometry": {
        "type": "Point",
        "coordinates": [
          34.2539658,
          39.7366539
        ]
      }
    },
    {
      "type": "Feature",
      "id": "node/1038144963",
      "properties": {
        "name": "Çerikli İstasyonu",
        "railway": "station",
        "id": "node/1038144963"
      },
      "geometry": {
        "type": "Point",
        "coordinates": [
          33.9997466,
          39.8911201
        ]
      }
    },
    {
      "type": "Feature",
      "id": "node/1038305813",
      "properties": {
        "name": "Kırıkkale Gar",
        "public_transport": "station",
        "railway": "station",
        "id": "node/1038305813"
      },
      "geometry": {
        "type": "Point",
        "coordinates": [
          33.5032968,
          39.8371258
        ]
      }
    },
    {
      "type": "Feature",
      "id": "node/1038518540",
      "properties": {
        "name": "İzzettin İstasyonu",
        "railway": "halt",
        "id": "node/1038518540"
      },
      "geometry": {
        "type": "Point",
        "coordinates": [
          33.8389474,
          39.9102753
        ]
      }
    },
    {
      "type": "Feature",
      "id": "node/1038519101",
      "properties": {
        "alt_name": "Balışıh İstasyonu",
        "name": "Balışeyh İstasyonu",
        "railway": "station",
        "id": "node/1038519101"
      },
      "geometry": {
        "type": "Point",
        "coordinates": [
          33.7178417,
          39.9079548
        ]
      }
    },
    {
      "type": "Feature",
      "id": "node/1038522591",
      "properties": {
        "name": "Yahşihan",
        "network": "TR-railway",
        "operator": "TCDD",
        "public_transport": "stop_position",
        "railway": "station",
        "id": "node/1038522591"
      },
      "geometry": {
        "type": "Point",
        "coordinates": [
          33.4471498,
          39.8456076
        ]
      }
    },
    {
      "type": "Feature",
      "id": "node/1038575223",
      "properties": {
        "name": "Hasanoğlan",
        "railway": "halt",
        "id": "node/1038575223"
      },
      "geometry": {
        "type": "Point",
        "coordinates": [
          33.1638746,
          39.9821709
        ]
      }
    },
    {
      "type": "Feature",
      "id": "node/1038576100",
      "properties": {
        "name": "Elmadağ İstasyonu",
        "railway": "station",
        "id": "node/1038576100"
      },
      "geometry": {
        "type": "Point",
        "coordinates": [
          33.2277349,
          39.9240281
        ]
      }
    },
    {
      "type": "Feature",
      "id": "node/1038614191",
      "properties": {
        "name": "Zonguldak Gar",
        "railway": "station",
        "wikidata": "Q16968474",
        "id": "node/1038614191"
      },
      "geometry": {
        "type": "Point",
        "coordinates": [
          31.7940503,
          41.4469652
        ]
      }
    },
    {
      "type": "Feature",
      "id": "node/1038614210",
      "properties": {
        "name": "Inağzi",
        "railway": "halt",
        "id": "node/1038614210"
      },
      "geometry": {
        "type": "Point",
        "coordinates": [
          31.8225275,
          41.4796075
        ]
      }
    },
    {
      "type": "Feature",
      "id": "node/1039187621",
      "properties": {
        "name": "Çaycuma İstasyonu",
        "public_transport": "station",
        "railway": "station",
        "id": "node/1039187621"
      },
      "geometry": {
        "type": "Point",
        "coordinates": [
          32.0953646,
          41.4241519
        ]
      }
    },
    {
      "type": "Feature",
      "id": "node/1039189715",
      "properties": {
        "name": "Üçburgu",
        "railway": "halt",
        "id": "node/1039189715"
      },
      "geometry": {
        "type": "Point",
        "coordinates": [
          32.1036734,
          41.311183
        ]
      }
    },
    {
      "type": "Feature",
      "id": "node/1039189717",
      "properties": {
        "name": "Akyamaç",
        "railway": "halt",
        "id": "node/1039189717"
      },
      "geometry": {
        "type": "Point",
        "coordinates": [
          32.0940391,
          41.4696028
        ]
      }
    },
    {
      "type": "Feature",
      "id": "node/1039318740",
      "properties": {
        "name": "Kayadibi",
        "railway": "halt",
        "id": "node/1039318740"
      },
      "geometry": {
        "type": "Point",
        "coordinates": [
          32.2044054,
          41.2339999
        ]
      }
    },
    {
      "type": "Feature",
      "id": "node/1039319054",
      "properties": {
        "name": "Kölemen",
        "railway": "halt",
        "id": "node/1039319054"
      },
      "geometry": {
        "type": "Point",
        "coordinates": [
          32.3625802,
          41.2128041
        ]
      }
    },
    {
      "type": "Feature",
      "id": "node/1040941127",
      "properties": {
        "int_name": "Kapikule",
        "name": "Kapıkule",
        "railway": "station",
        "railway:ref:DB": "XQKA",
        "uic_name": "Kapikule",
        "uic_ref": "7500062",
        "id": "node/1040941127"
      },
      "geometry": {
        "type": "Point",
        "coordinates": [
          26.3616041,
          41.7190745
        ]
      }
    },
    {
      "type": "Feature",
      "id": "node/1056006985",
      "properties": {
        "name": "Topac",
        "railway": "halt",
        "id": "node/1056006985"
      },
      "geometry": {
        "type": "Point",
        "coordinates": [
          36.3070472,
          39.3581574
        ]
      }
    },
    {
      "type": "Feature",
      "id": "node/1069777998",
      "properties": {
        "name": "Çobanbeyli İstasyonu",
        "railway": "station",
        "id": "node/1069777998"
      },
      "geometry": {
        "type": "Point",
        "coordinates": [
          37.4761947,
          36.6360806
        ]
      }
    },
    {
      "type": "Feature",
      "id": "node/1101841150",
      "properties": {
        "name": "Nusaybin",
        "name:ar": "نصيبين",
        "operator": "TCDD",
        "railway": "station",
        "uic_ref": "7506594",
        "id": "node/1101841150"
      },
      "geometry": {
        "type": "Point",
        "coordinates": [
          41.2281406,
          37.0758079
        ]
      }
    },
    {
      "type": "Feature",
      "id": "node/1114702237",
      "properties": {
        "name": "Alpu İstasyonu",
        "railway": "station",
        "id": "node/1114702237"
      },
      "geometry": {
        "type": "Point",
        "coordinates": [
          30.9541728,
          39.7681753
        ]
      }
    },
    {
      "type": "Feature",
      "id": "node/1117003097",
      "properties": {
        "name": "Çelik",
        "network": "TR-railway",
        "operator": "TCDD",
        "public_transport": "stop_position",
        "railway": "station",
        "train": "yes",
        "id": "node/1117003097"
      },
      "geometry": {
        "type": "Point",
        "coordinates": [
          37.5086299,
          37.7003585
        ]
      }
    },
    {
      "type": "Feature",
      "id": "node/1129430258",
      "properties": {
        "name": "Vezirhan İstasyonu",
        "railway": "station",
        "id": "node/1129430258"
      },
      "geometry": {
        "type": "Point",
        "coordinates": [
          30.0274266,
          40.2467867
        ]
      }
    },
    {
      "type": "Feature",
      "id": "node/1184766533",
      "properties": {
        "name": "Yedikule",
        "name:ar": "يديكولي",
        "public_transport": "stop_position",
        "railway": "stop",
        "train": "yes",
        "id": "node/1184766533"
      },
      "geometry": {
        "type": "Point",
        "coordinates": [
          28.9263484,
          40.9933625
        ]
      }
    },
    {
      "type": "Feature",
      "id": "node/1184766547",
      "properties": {
        "name": "Yenikapı",
        "name:ar": "يني كابي",
        "public_transport": "station",
        "railway": "station",
        "id": "node/1184766547"
      },
      "geometry": {
        "type": "Point",
        "coordinates": [
          28.952722,
          41.004795
        ]
      }
    },
    {
      "type": "Feature",
      "id": "node/1184766559",
      "properties": {
        "name": "Yenimahale",
        "public_transport": "station",
        "railway": "station",
        "train": "yes",
        "wikidata": "Q55638084",
        "wikipedia": "tr:Yenimahalle Tren İstasyonu",
        "id": "node/1184766559"
      },
      "geometry": {
        "type": "Point",
        "coordinates": [
          28.8810529,
          40.9817256
        ]
      }
    },
    {
      "type": "Feature",
      "id": "node/1184766586",
      "properties": {
        "name": "Yeşilyurt",
        "public_transport": "station",
        "railway": "station",
        "train": "yes",
        "wikidata": "Q92213253",
        "wikipedia": "tr:Yeşilyurt Tren İstasyonu (İstanbul)",
        "id": "node/1184766586"
      },
      "geometry": {
        "type": "Point",
        "coordinates": [
          28.8373253,
          40.9654468
        ]
      }
    },
    {
      "type": "Feature",
      "id": "node/1203605825",
      "properties": {
        "name": "Himmetdede İstasyonu",
        "railway": "station",
        "id": "node/1203605825"
      },
      "geometry": {
        "type": "Point",
        "coordinates": [
          35.0845113,
          38.9090699
        ]
      }
    },
    {
      "type": "Feature",
      "id": "node/1207395188",
      "properties": {
        "name": "Ulugüney İstasyonu",
        "public_transport": "station",
        "railway": "station",
        "id": "node/1207395188"
      },
      "geometry": {
        "type": "Point",
        "coordinates": [
          37.8300429,
          38.9904651
        ]
      }
    },
    {
      "type": "Feature",
      "id": "node/1208397892",
      "properties": {
        "name": "Avşar İstasyonu",
        "public_transport": "station",
        "railway": "station",
        "id": "node/1208397892"
      },
      "geometry": {
        "type": "Point",
        "coordinates": [
          37.7316039,
          39.3301434
        ]
      }
    },
    {
      "type": "Feature",
      "id": "node/1208398419",
      "properties": {
        "frequency": "50",
        "name": "Çetinkaya İstasyonu",
        "railway": "station",
        "wikidata": "Q43398842",
        "id": "node/1208398419"
      },
      "geometry": {
        "type": "Point",
        "coordinates": [
          37.6076589,
          39.249321
        ]
      }
    },
    {
      "type": "Feature",
      "id": "node/1211647863",
      "properties": {
        "name": "Divriği",
        "railway": "station",
        "wikidata": "Q43398840",
        "id": "node/1211647863"
      },
      "geometry": {
        "type": "Point",
        "coordinates": [
          38.114044,
          39.3841354
        ]
      }
    },
    {
      "type": "Feature",
      "id": "node/1211648706",
      "properties": {
        "name": "Km 790+800",
        "railway": "halt",
        "id": "node/1211648706"
      },
      "geometry": {
        "type": "Point",
        "coordinates": [
          38.1886721,
          39.349401
        ]
      }
    },
    {
      "type": "Feature",
      "id": "node/1211656614",
      "properties": {
        "name": "Dazlak",
        "railway": "halt",
        "id": "node/1211656614"
      },
      "geometry": {
        "type": "Point",
        "coordinates": [
          38.2333172,
          39.3408331
        ]
      }
    },
    {
      "type": "Feature",
      "id": "node/1211778407",
      "properties": {
        "name": "Göçentaşı",
        "railway": "station",
        "id": "node/1211778407"
      },
      "geometry": {
        "type": "Point",
        "coordinates": [
          37.9083776,
          39.4076138
        ]
      }
    },
    {
      "type": "Feature",
      "id": "node/1211785004",
      "properties": {
        "name": "Bahçeli (Km 755+290)",
        "railway": "station",
        "id": "node/1211785004"
      },
      "geometry": {
        "type": "Point",
        "coordinates": [
          37.9471593,
          39.4093216
        ]
      }
    },
    {
      "type": "Feature",
      "id": "node/1329009857",
      "properties": {
        "name": "Sığırcı",
        "railway": "halt",
        "id": "node/1329009857"
      },
      "geometry": {
        "type": "Point",
        "coordinates": [
          28.0731719,
          40.178137
        ]
      }
    },
    {
      "type": "Feature",
      "id": "node/1339863753",
      "properties": {
        "name": "Etimesgut",
        "network": "Başkentray",
        "operator": "TCDD Taşımacılık",
        "public_transport": "station",
        "railway": "station",
        "train": "yes",
        "wikidata": "Q55611107",
        "wikipedia": "tr:Etimesgut Tren İstasyonu",
        "id": "node/1339863753"
      },
      "geometry": {
        "type": "Point",
        "coordinates": [
          32.6629946,
          39.9493218
        ]
      }
    },
    {
      "type": "Feature",
      "id": "node/1339958347",
      "properties": {
        "name": "Özgüneş",
        "network": "Başkentray",
        "operator": "TCDD Taşımacılık",
        "public_transport": "station",
        "railway": "station",
        "train": "yes",
        "wikidata": "Q55638300",
        "wikipedia": "tr:Özgüneş Tren İstasyonu",
        "id": "node/1339958347"
      },
      "geometry": {
        "type": "Point",
        "coordinates": [
          32.6490951,
          39.9518151
        ]
      }
    },
    {
      "type": "Feature",
      "id": "node/1392072230",
      "properties": {
        "name": "Pamukova İstasyonu",
        "railway": "station",
        "id": "node/1392072230"
      },
      "geometry": {
        "type": "Point",
        "coordinates": [
          30.1720901,
          40.5025244
        ]
      }
    },
    {
      "type": "Feature",
      "id": "node/1426057756",
      "properties": {
        "name": "Eskiköy İstasyonu",
        "railway": "station",
        "source": "GNS",
        "id": "node/1426057756"
      },
      "geometry": {
        "type": "Point",
        "coordinates": [
          37.3103544,
          39.4370452
        ]
      }
    },
    {
      "type": "Feature",
      "id": "node/1426057762",
      "properties": {
        "name": "Karagöl İstasyonu",
        "railway": "station",
        "source": "GNS",
        "id": "node/1426057762"
      },
      "geometry": {
        "type": "Point",
        "coordinates": [
          37.362836,
          39.4212686
        ]
      }
    },
    {
      "type": "Feature",
      "id": "node/1433310152",
      "properties": {
        "name": "Kuşsarayı",
        "network": "TR-railway",
        "operator": "TCDD",
        "public_transport": "stop_position",
        "railway": "station",
        "train": "yes",
        "id": "node/1433310152"
      },
      "geometry": {
        "type": "Point",
        "coordinates": [
          38.6808223,
          38.4528167
        ]
      }
    },
    {
      "type": "Feature",
      "id": "node/1433310422",
      "properties": {
        "name": "Pınarlı",
        "network": "TR-railway",
        "operator": "TCDD",
        "public_transport": "stop_position",
        "railway": "station",
        "train": "yes",
        "id": "node/1433310422"
      },
      "geometry": {
        "type": "Point",
        "coordinates": [
          38.7750457,
          38.4725397
        ]
      }
    },
    {
      "type": "Feature",
      "id": "node/1433311182",
      "properties": {
        "name": "Karaali",
        "network": "TR-railway",
        "operator": "TCDD",
        "public_transport": "stop_position",
        "railway": "halt",
        "train": "yes",
        "id": "node/1433311182"
      },
      "geometry": {
        "type": "Point",
        "coordinates": [
          38.9357699,
          38.5642135
        ]
      }
    },
    {
      "type": "Feature",
      "id": "node/1433312114",
      "properties": {
        "name": "Seydili",
        "railway": "halt",
        "id": "node/1433312114"
      },
      "geometry": {
        "type": "Point",
        "coordinates": [
          39.8882305,
          38.6927839
        ]
      }
    },
    {
      "type": "Feature",
      "id": "node/1433312576",
      "properties": {
        "frequency": "50",
        "name": "Hekimhan İstayonu",
        "railway": "station",
        "source": "bing",
        "id": "node/1433312576"
      },
      "geometry": {
        "type": "Point",
        "coordinates": [
          37.9278336,
          38.8107718
        ]
      }
    },
    {
      "type": "Feature",
      "id": "node/1433313760",
      "properties": {
        "name": "Akçamağara",
        "railway": "halt",
        "id": "node/1433313760"
      },
      "geometry": {
        "type": "Point",
        "coordinates": [
          37.734917,
          39.0990675
        ]
      }
    },
    {
      "type": "Feature",
      "id": "node/1433314761",
      "properties": {
        "name": "Köroğlu",
        "railway": "halt",
        "id": "node/1433314761"
      },
      "geometry": {
        "type": "Point",
        "coordinates": [
          37.3903721,
          39.3733987
        ]
      }
    },
    {
      "type": "Feature",
      "id": "node/1433315101",
      "properties": {
        "name": "Ayvaz",
        "railway": "halt",
        "id": "node/1433315101"
      },
      "geometry": {
        "type": "Point",
        "coordinates": [
          37.3409986,
          39.4381077
        ]
      }
    },
    {
      "type": "Feature",
      "id": "node/1440695835",
      "properties": {
        "name": "Araplı İstasyonu",
        "railway": "station",
        "id": "node/1440695835"
      },
      "geometry": {
        "type": "Point",
        "coordinates": [
          35.0472562,
          38.2403688
        ]
      }
    },
    {
      "type": "Feature",
      "id": "node/1449711345",
      "properties": {
        "name": "Balabanlı İstasyonu",
        "railway": "halt",
        "id": "node/1449711345"
      },
      "geometry": {
        "type": "Point",
        "coordinates": [
          27.606066,
          41.1406618
        ]
      }
    },
    {
      "type": "Feature",
      "id": "node/1457024309",
      "properties": {
        "name": "Tahtaköprü İstasyonu",
        "railway": "station",
        "id": "node/1457024309"
      },
      "geometry": {
        "type": "Point",
        "coordinates": [
          36.6750576,
          36.8319497
        ]
      }
    },
    {
      "type": "Feature",
      "id": "node/1457024310",
      "properties": {
        "name": "Yolçatı",
        "network": "TR-railway",
        "operator": "TCDD",
        "public_transport": "stop_position",
        "railway": "station",
        "train": "yes",
        "id": "node/1457024310"
      },
      "geometry": {
        "type": "Point",
        "coordinates": [
          37.842656,
          36.9888887
        ]
      }
    },
    {
      "type": "Feature",
      "id": "node/1476518859",
      "properties": {
        "name": "Karalıköy İstasyonu",
        "railway": "station",
        "id": "node/1476518859"
      },
      "geometry": {
        "type": "Point",
        "coordinates": [
          36.6437819,
          39.6753531
        ]
      }
    },
    {
      "type": "Feature",
      "id": "node/1476518860",
      "properties": {
        "name": "Sarısöğüt İstasyonu",
        "railway": "station",
        "id": "node/1476518860"
      },
      "geometry": {
        "type": "Point",
        "coordinates": [
          36.5940094,
          39.6402163
        ]
      }
    },
    {
      "type": "Feature",
      "id": "node/1492169385",
      "properties": {
        "name": "Ilıca (Aziziye) İstasyonu",
        "railway": "station",
        "id": "node/1492169385"
      },
      "geometry": {
        "type": "Point",
        "coordinates": [
          41.1032323,
          39.951117
        ]
      }
    },
    {
      "type": "Feature",
      "id": "node/1514128333",
      "properties": {
        "name": "Akyaka",
        "railway": "station",
        "wikidata": "Q4702026",
        "id": "node/1514128333"
      },
      "geometry": {
        "type": "Point",
        "coordinates": [
          43.6234957,
          40.739826
        ]
      }
    },
    {
      "type": "Feature",
      "id": "node/1514128635",
      "properties": {
        "name": "Kurudere",
        "railway": "halt",
        "id": "node/1514128635"
      },
      "geometry": {
        "type": "Point",
        "coordinates": [
          43.5433472,
          40.7349143
        ]
      }
    },
    {
      "type": "Feature",
      "id": "node/1514128724",
      "properties": {
        "name": "Şahnalar",
        "railway": "halt",
        "id": "node/1514128724"
      },
      "geometry": {
        "type": "Point",
        "coordinates": [
          43.5460408,
          40.7427347
        ]
      }
    },
    {
      "type": "Feature",
      "id": "node/1544856210",
      "properties": {
        "name": "Gözmen",
        "railway": "halt",
        "id": "node/1544856210"
      },
      "geometry": {
        "type": "Point",
        "coordinates": [
          36.6624788,
          39.517748
        ]
      }
    },
    {
      "type": "Feature",
      "id": "node/1544857237",
      "properties": {
        "name": "Sarıdemir",
        "railway": "station",
        "id": "node/1544857237"
      },
      "geometry": {
        "type": "Point",
        "coordinates": [
          36.8286664,
          39.5306608
        ]
      }
    },
    {
      "type": "Feature",
      "id": "node/1550726413",
      "properties": {
        "alt_name": "Muş Railway Station;Muş Station",
        "electrified": "no",
        "name": "Muş Garı",
        "name:en": "Muş",
        "name:tr": "Muş Garı",
        "public_transport": "station",
        "railway": "station",
        "wikidata": "Q85455909",
        "wikipedia": "tr:Muş Garı",
        "id": "node/1550726413"
      },
      "geometry": {
        "type": "Point",
        "coordinates": [
          41.511014,
          38.7615921
        ]
      }
    },
    {
      "type": "Feature",
      "id": "node/1626731519",
      "properties": {
        "gar_kodu": "7566",
        "name": "Dursunbey",
        "operator": "TCDD",
        "public_transport": "station",
        "railway": "station",
        "source": "bing",
        "train": "yes",
        "id": "node/1626731519"
      },
      "geometry": {
        "type": "Point",
        "coordinates": [
          28.6531014,
          39.5474967
        ]
      }
    },
    {
      "type": "Feature",
      "id": "node/1626958248",
      "properties": {
        "name": "Nallıkaya",
        "railway": "halt",
        "id": "node/1626958248"
      },
      "geometry": {
        "type": "Point",
        "coordinates": [
          28.8934825,
          39.6216346
        ]
      }
    },
    {
      "type": "Feature",
      "id": "node/1626984771",
      "properties": {
        "gar_kodu": "7649",
        "name": "Piribeyler İstasyonu",
        "railway": "station",
        "source": "bing",
        "id": "node/1626984771"
      },
      "geometry": {
        "type": "Point",
        "coordinates": [
          28.7960327,
          39.6275959
        ]
      }
    },
    {
      "type": "Feature",
      "id": "node/1628535479",
      "properties": {
        "name": "Tavşanlı İstasyonu",
        "name:en": "Tavşanlı train station",
        "railway": "station",
        "id": "node/1628535479"
      },
      "geometry": {
        "type": "Point",
        "coordinates": [
          29.4869446,
          39.5401563
        ]
      }
    },
    {
      "type": "Feature",
      "id": "node/1634040345",
      "properties": {
        "name": "Bozüyük İstasyonu",
        "railway": "station",
        "id": "node/1634040345"
      },
      "geometry": {
        "type": "Point",
        "coordinates": [
          30.0372781,
          39.9042859
        ]
      }
    },
    {
      "type": "Feature",
      "id": "node/1671168620",
      "properties": {
        "name": "Horsunlu Istasyon",
        "railway": "station",
        "id": "node/1671168620"
      },
      "geometry": {
        "type": "Point",
        "coordinates": [
          28.5911007,
          37.9147695
        ]
      }
    },
    {
      "type": "Feature",
      "id": "node/1672000014",
      "properties": {
        "fixme": "yerini doğrula",
        "name": "Sarıkavak Durağı",
        "railway": "halt",
        "usage": "main",
        "id": "node/1672000014"
      },
      "geometry": {
        "type": "Point",
        "coordinates": [
          29.8178445,
          37.873084
        ]
      }
    },
    {
      "type": "Feature",
      "id": "node/1677624022",
      "properties": {
        "electrified": "no",
        "gauge": "1435",
        "name": "Gümüşgün İstasyonu",
        "public_transport": "station",
        "railway": "station",
        "id": "node/1677624022"
      },
      "geometry": {
        "type": "Point",
        "coordinates": [
          30.4121066,
          37.8935157
        ]
      }
    },
    {
      "type": "Feature",
      "id": "node/1678355263",
      "properties": {
        "name": "Ibrahimbey Durağı",
        "network": "TR-railway",
        "operator": "TCDD",
        "public_transport": "stop_position",
        "railway": "halt",
        "train": "yes",
        "tram": "no",
        "id": "node/1678355263"
      },
      "geometry": {
        "type": "Point",
        "coordinates": [
          27.7292698,
          38.1555192
        ]
      }
    },
    {
      "type": "Feature",
      "id": "node/1678355458",
      "properties": {
        "name": "Doyranlı Durağı",
        "railway": "halt",
        "id": "node/1678355458"
      },
      "geometry": {
        "type": "Point",
        "coordinates": [
          27.8232301,
          38.1696752
        ]
      }
    },
    {
      "type": "Feature",
      "id": "node/1678567153",
      "properties": {
        "name": "İzban Pancar İstasyonu",
        "railway": "station",
        "id": "node/1678567153"
      },
      "geometry": {
        "type": "Point",
        "coordinates": [
          27.2394791,
          38.1975572
        ]
      }
    },
    {
      "type": "Feature",
      "id": "node/1678629843",
      "properties": {
        "name": "Tepeköy Tren İstasyonu",
        "network": "İZBAN",
        "public_transport": "station",
        "railway": "station",
        "train": "yes",
        "wikidata": "Q23692531",
        "wikipedia": "tr:Tepeköy Tren İstasyonu",
        "id": "node/1678629843"
      },
      "geometry": {
        "type": "Point",
        "coordinates": [
          27.36184,
          38.1467562
        ]
      }
    },
    {
      "type": "Feature",
      "id": "node/1688809279",
      "properties": {
        "name": "Evciler Istasyon",
        "railway": "station",
        "usage": "main",
        "id": "node/1688809279"
      },
      "geometry": {
        "type": "Point",
        "coordinates": [
          29.921358,
          38.0270542
        ]
      }
    },
    {
      "type": "Feature",
      "id": "node/1692868969",
      "properties": {
        "name": "Ovacık",
        "railway": "halt",
        "id": "node/1692868969"
      },
      "geometry": {
        "type": "Point",
        "coordinates": [
          27.3994182,
          41.3199461
        ]
      }
    },